Building Name,Street Address,City,State,Postal,Country,MSA Name,Latitude,Longitude,Elevation,Serving Wire Center CLLI,Building CLLI,Network Build Status,Building Connection Status,Building Category,NPA,NXX,LATA,Demarc Code,Fiber Ownership,Access Medium,Install Interval,Supplier Name,Access Customer Name,Access Floor,Access Room,Ethernet Handoff Type,Minimum Circuit Level,Minimum Quantity to Accept an Order,Special Construction Cost,Customer Unique Key,CB Building Key,Transaction Indicator,Primary NNI Location,Secondary NNI Location,Primary Number,Street Predirection,Street Name,Street Postdirection,Street Suffix,Secondary Designator,Secondary Number,Extra Secondary Designator,Extra Secondary Number,Plus4 Code,Conformed State,Conformed City,Building Notes,Distance Band,LOS Distance 1 Path,LOS Distance 2 Path,ROW Distance 1 Path,ROW Distance 2 Path,LOS Distance 1 Access Point,LOS Distance 2 Access Point,ROW Distance 1 Access Point,ROW Distance 2 Access Point,Comcast Pricing Zone,Indatel Pricing Zone,CenturyLink Pricing Zone,Sprint Pricing Zone,Verizon Pricing Zone,AT&T Pricing Zone,Building Competitive Rating,AT&T Serving Node CLLI,AT&T Unique Key,Pricing Zone,Pricing Type,Wavelength Handoff Type,Wave Zone,Wave Install Interval,Custom Pricing Zone,Lateral Distance,OSP Construction Estimate,OSP Cost per Foot,OSP Cost Zone,Telco_Spend,Tenant_Count,FBL Market ID,MRTL,Territory ID,Pricing Tool,Minimum Contract Value,TCVR,Base Zone,Tenant Band,Telco Spend Band,Active Status,SFDC Access Level,Wave MCV,Mkt-Prof 1,Program Engineering Boundary,Program SWC,MOVAw,MOVAe,Investment Building Eligible,Bundle Tier,SFDC Building Type,Dish Route,Dish 2020,CPQ Ethernet Zone,DASH Eligibility,MKT Rate EVPL 5000,ENNI Eligibility,EPE Approval Code,SWC Status,QM Last Run Date,QM MNO Target,MNO-A ID,MNO-T ID,Dark MCV,MNO-V ID,FRDF Eligible,MDFNp Eligible,FNI,MNO Target,QM FCC ID,SFDC LLOC,FBL Node,FBL Market,FBL Level 6 Demarcs,Texas Express Node,CoStar ID,SFDC Status,SFDC On Off Net,SFDC Building Category 1,SFDC Building Category 2,SFDC Market,SFDC Active Date,SFDC Building Name,SFDC Location Long ID,SFDC Location ID,SFDC Entrance Type,DISH Site ID,TMO Site ID,Sprint Site Id,Verizon Site ID,ATT Site ID,SFDC Building Type.1,NPA- NXX,Ethernet Zone,Horizontal Coordinate,Vertical Coordinate,Protection Type,Handoff Pricing,Diversity Type,Tenant Count,Building Sq Footage,Building Floors,Property Type,Address Status,id,Barriers,Modified Date,Modified By,Status
25063 Kingscote Ct,25063 Kingscote Ct,Chantilly,VA,20152,USA,"Washington-Arlington-Alexandria, DC-VA-MD-WV",38.924215,-77.539379,,ARCLVAXARS0,,Not Connected,Near Net,Commercial Building,703,327,236,,,Fiber,,FIBERLIGHT LLC,,,,,,,,,,N,,,25063,,Kingscote,,Ct,,,,,,,,No,1501+ feet,1793.0,,2828.0,,,,,,,,,,,,,,,,,,,,,,,,,,,,,,,,,,,,,,,,,,,,,,,,,,,,,,,,,,,,,,,,,,,,,,,,,,,,,,,,,,,,,,,,,,,,,,,,,,,,4,,,,delta_new
23078 Welbourne Walk Ct,23078 Welbourne Walk Ct,Ashburn,VA,20148,USA,"Washington-Arlington-Alexandria, DC-VA-MD-WV",38.978909,-77.567893,,ARCLVAXARS0,,Not Connected,Near Net,Commercial Building,703,327,236,,,Fiber,,FIBERLIGHT LLC,,,,,,,,,,N,,,23078,,Welbourne Walk,,Ct,,,,,,,,No,1501+ feet,1789.0,,1820.0,,,,,,,,,,,,,,,,,,,,,,,,,,,,,,,,,,,,,,,,,,,,,,,,,,,,,,,,,,,,,,,,,,,,,,,,,,,,,,,,,,,,,,,,,,,,,,,,,,,,7,,,,delta_new
22657 Narragansett Ter,22657 Narragansett Ter,Ashburn,VA,20148,USA,"Washington-Arlington-Alexandria, DC-VA-MD-WV",38.989744,-77.484611,,ASBNVAASDS0,,Not Connected,Near Net,Commercial Building,703,723,246,,,Fiber,,FIBERLIGHT LLC,,,,,,,,,,N,,,22657,,Narragansett,,Ter,,,,,,,,No,1501+ feet,1788.0,,2342.0,,,,,,,,,,,,,,,,,,,,,,,,,,,,,,,,,,,,,,,,,,,,,,,,,,,,,,,,,,,,,,,,,,,,,,,,,,,,,,,,,,,,,,,,,,,,,,,,,,,,8,,,,delta_new
44270 Mercure Cir,44270 Mercure Cir,Sterling,VA,20166,USA,"Washington-Arlington-Alexandria, DC-VA-MD-WV",38.989362,-77.475218,,HRNDVASTDS0,,Not Connected,Near Net,Commercial Building,703,265,236,,,Fiber,,FIBERLIGHT LLC,,,,,,,,,,N,,,44270,,Mercure,,Cir,,,,,,,,No,1501+ feet,1785.0,,2603.0,,,,,,,,,,,,,,,,,,,,,,,,,,,,,,,,,,,,,,,,,,,,,,,,,,,,,,,,,,,,,,,,,,,,,,,,,,,,,,,,,,,,,,,,,,,,,,,,,,,,9,,,,delta_new
42469 John Mosby Hwy,42469 John Mosby Hwy,Chantilly,VA,20152,USA,"Washington-Arlington-Alexandria, DC-VA-MD-WV",38.934443,-77.533885,,ARCLVAXARS0,,Not Connected,Near Net,Commercial Building,703,327,236,,,Fiber,,FIBERLIGHT LLC,,,,,,,,,,N,,,42469,,John Mosby,,Hwy,,,,,,,,No,1501+ feet,1783.0,,1845.0,,,,,,,,,,,,,,,,,,,,,,,,,,,,,,,,,,,,,,,,,,,,,,,,,,,,,,,,,,,,,,,,,,,,,,,,,,,,,,,,,,,,,,,,,,,,,,,,,,,,12,,,,delta_new
22031 Ayr Hill Ct,22031 Ayr Hill Ct,Ashburn,VA,20148,USA,"Washington-Arlington-Alexandria, DC-VA-MD-WV",39.007146,-77.521223,,ASBNVAASDS0,,Not Connected,Near Net,Commercial Building,703,723,246,,,Fiber,,FIBERLIGHT LLC,,,,,,,,,,N,,,22031,,Ayr Hill,,Ct,,,,,,,,No,1501+ feet,1781.0,,2371.0,,,,,,,,,,,,,,,,,,,,,,,,,,,,,,,,,,,,,,,,,,,,,,,,,,,,,,,,,,,,,,,,,,,,,,,,,,,,,,,,,,,,,,,,,,,,,,,,,,,,13,,,,delta_new
42952 Val Aosta Dr,42952 Val Aosta Dr,Ashburn,VA,20148,USA,"Washington-Arlington-Alexandria, DC-VA-MD-WV",38.998073,-77.514744,,ASBNVAASDS0,,Not Connected,Near Net,Commercial Building,703,723,246,,,Fiber,,FIBERLIGHT LLC,,,,,,,,,,N,,,42952,,Val Aosta,,Dr,,,,,,,,No,1501+ feet,1776.0,,2389.0,,,,,,,,,,,,,,,,,,,,,,,,,,,,,,,,,,,,,,,,,,,,,,,,,,,,,,,,,,,,,,,,,,,,,,,,,,,,,,,,,,,,,,,,,,,,,,,,,,,,16,,,,delta_new
22622 Scattersville Gap Ter,22622 Scattersville Gap Ter,Ashburn,VA,20148,USA,"Washington-Arlington-Alexandria, DC-VA-MD-WV",38.989509,-77.488246,,ASBNVAASDS0,,Not Connected,Near Net,Commercial Building,703,723,246,,,Fiber,,FIBERLIGHT LLC,,,,,,,,,,N,,,22622,,Scattersville Gap,,Ter,,,,,,,,No,1501+ feet,1776.0,,2430.0,,,,,,,,,,,,,,,,,,,,,,,,,,,,,,,,,,,,,,,,,,,,,,,,,,,,,,,,,,,,,,,,,,,,,,,,,,,,,,,,,,,,,,,,,,,,,,,,,,,,17,,,,delta_new
23547 Evergreen Mills Rd,23547 Evergreen Mills Rd,Aldie,VA,20105,USA,"Washington-Arlington-Alexandria, DC-VA-MD-WV",38.974387,-77.557913,,ARCLVAXARS0,,Not Connected,Near Net,Commercial Building,703,327,236,,,Fiber,,FIBERLIGHT LLC,,,,,,,,,,N,,,23547,,Evergreen Mills,,Rd,,,,,,,,No,1501+ feet,1774.0,,2917.0,,,,,,,,,,,,,,,,,,,,,,,,,,,,,,,,,,,,,,,,,,,,,,,,,,,,,,,,,,,,,,,,,,,,,,,,,,,,,,,,,,,,,,,,,,,,,,,,,,,,19,,,,delta_new
43031 Elk Pl,43031 Elk Pl,Chantilly,VA,20152,USA,"Washington-Arlington-Alexandria, DC-VA-MD-WV",38.922097,-77.513018,,ARCLVAXARS0,,Not Connected,Near Net,Commercial Building,703,327,236,,,Fiber,,FIBERLIGHT LLC,,,,,,,,,,N,,,43031,,Elk,,Pl,,,,,,,,No,1501+ feet,1773.0,,2618.0,,,,,,,,,,,,,,,,,,,,,,,,,,,,,,,,,,,,,,,,,,,,,,,,,,,,,,,,,,,,,,,,,,,,,,,,,,,,,,,,,,,,,,,,,,,,,,,,,,,,20,,,,delta_new
25067 Kingscote Ct,25067 Kingscote Ct,Chantilly,VA,20152,USA,"Washington-Arlington-Alexandria, DC-VA-MD-WV",38.923936,-77.539435,,ARCLVAXARS0,,Not Connected,Near Net,Commercial Building,703,327,236,,,Fiber,,FIBERLIGHT LLC,,,,,,,,,,N,,,25067,,Kingscote,,Ct,,,,,,,,No,1501+ feet,1801.0,,2908.0,,,,,,,,,,,,,,,,,,,,,,,,,,,,,,,,,,,,,,,,,,,,,,,,,,,,,,,,,,,,,,,,,,,,,,,,,,,,,,,,,,,,,,,,,,,,,,,,,,,,24,,,,delta_new
42047 Pepperbush Pl,42047 Pepperbush Pl,Aldie,VA,20105,USA,"Washington-Arlington-Alexandria, DC-VA-MD-WV",38.92799,-77.548542,,ARCLVAXARS0,,Not Connected,Near Net,Commercial Building,703,327,236,,,Fiber,,FIBERLIGHT LLC,,,,,,,,,,N,,,42047,,Pepperbush,,Pl,,,,,,,,No,1501+ feet,1807.0,,1886.0,,,,,,,,,,,,,,,,,,,,,,,,,,,,,,,,,,,,,,,,,,,,,,,,,,,,,,,,,,,,,,,,,,,,,,,,,,,,,,,,,,,,,,,,,,,,,,,,,,,,27,,,,delta_new
23207 Wrathall Dr,23207 Wrathall Dr,Ashburn,VA,20148,USA,"Washington-Arlington-Alexandria, DC-VA-MD-WV",38.974975,-77.510565,,ASBNVAASDS0,,Not Connected,Near Net,Commercial Building,703,723,246,,,Fiber,,FIBERLIGHT LLC,,,,,,,,,,N,,,23207,,Wrathall,,Dr,,,,,,,,No,1501+ feet,1825.0,,2572.0,,,,,,,,,,,,,,,,,,,,,,,,,,,,,,,,,,,,,,,,,,,,,,,,,,,,,,,,,,,,,,,,,,,,,,,,,,,,,,,,,,,,,,,,,,,,,,,,,,,,37,,,,delta_new
43751 Beaver Meadow Rd,43751 Beaver Meadow Rd,Sterling,VA,20166,USA,"Washington-Arlington-Alexandria, DC-VA-MD-WV",38.967004,-77.48847,,DLLSVAXARS0,,Not Connected,Near Net,Commercial Building,703,260,236,,,Fiber,,FIBERLIGHT LLC,,,,,,,,,,N,,,43751,,Beaver Meadow,,Rd,,,,,,,,No,1501+ feet,1765.0,,1976.0,,,,,,,,,,,,,,,,,,,,,,,,,,,,,,,,,,,,,,,,,,,,,,,,,,,,,,,,,,,,,,,,,,,,,,,,,,,,,,,,,,,,,,,,,,,,,,,,,,,,39,,,,delta_new
24669 Kings Canyon Sq,24669 Kings Canyon Sq,Aldie,VA,20105,USA,"Washington-Arlington-Alexandria, DC-VA-MD-WV",38.935341,-77.547212,,ARCLVAXARS0,,Not Connected,Near Net,Commercial Building,703,327,236,,,Fiber,,FIBERLIGHT LLC,,,,,,,,,,N,,,24669,,Kings Canyon,,Sq,,,,,,,,No,1501+ feet,1817.0,,2316.0,,,,,,,,,,,,,,,,,,,,,,,,,,,,,,,,,,,,,,,,,,,,,,,,,,,,,,,,,,,,,,,,,,,,,,,,,,,,,,,,,,,,,,,,,,,,,,,,,,,,43,,,,delta_new
42087 Fiddlehead Pl,42087 Fiddlehead Pl,Aldie,VA,20105,USA,"Washington-Arlington-Alexandria, DC-VA-MD-WV",38.932301,-77.546425,,ARCLVAXARS0,,Not Connected,Near Net,Commercial Building,703,327,236,,,Fiber,,FIBERLIGHT LLC,,,,,,,,,,N,,,42087,,Fiddlehead,,Pl,,,,,,,,No,1501+ feet,1817.0,,2823.0,,,,,,,,,,,,,,,,,,,,,,,,,,,,,,,,,,,,,,,,,,,,,,,,,,,,,,,,,,,,,,,,,,,,,,,,,,,,,,,,,,,,,,,,,,,,,,,,,,,,44,,,,delta_new
25295 Loganshire Ter,25295 Loganshire Ter,Chantilly,VA,20152,USA,"Washington-Arlington-Alexandria, DC-VA-MD-WV",38.915997,-77.513729,,ARCLVAXARS0,,Not Connected,Near Net,Commercial Building,703,327,236,,,Fiber,,FIBERLIGHT LLC,,,,,,,,,,N,,,25295,,Loganshire,,Ter,,,,,,,,waterways - stream,1501+ feet,1809.0,,2335.0,,,,,,,,,,,,,,,,,,,,,,,,,,,,,,,,,,,,,,,,,,,,,,,,,,,,,,,,,,,,,,,,,,,,,,,,,,,,,,,,,,,,,,,,,,,,,,,,,,,,50,,,,delta_new
22671 Lamoreaux Landing Sq,22671 Lamoreaux Landing Sq,Ashburn,VA,20148,USA,"Washington-Arlington-Alexandria, DC-VA-MD-WV",38.989931,-77.483825,,ASBNVAASDS0,,Not Connected,Near Net,Commercial Building,703,723,246,,,Fiber,,FIBERLIGHT LLC,,,,,,,,,,N,,,22671,,Lamoreaux Landing,,Sq,,,,,,,,No,1501+ feet,1764.0,,2448.0,,,,,,,,,,,,,,,,,,,,,,,,,,,,,,,,,,,,,,,,,,,,,,,,,,,,,,,,,,,,,,,,,,,,,,,,,,,,,,,,,,,,,,,,,,,,,,,,,,,,53,,,,delta_new
42768 Hollingsworth Ter,42768 Hollingsworth Ter,Chantilly,VA,20152,USA,"Washington-Arlington-Alexandria, DC-VA-MD-WV",38.916001,-77.523763,,ARCLVAXARS0,,Not Connected,Near Net,Commercial Building,703,327,236,,,Fiber,,FIBERLIGHT LLC,,,,,,,,,,N,,,42768,,Hollingsworth,,Ter,,,,,,,,No,1501+ feet,1761.0,,1939.0,,,,,,,,,,,,,,,,,,,,,,,,,,,,,,,,,,,,,,,,,,,,,,,,,,,,,,,,,,,,,,,,,,,,,,,,,,,,,,,,,,,,,,,,,,,,,,,,,,,,55,,,,delta_new
42427 Redstone Ter,42427 Redstone Ter,Ashburn,VA,20148,USA,"Washington-Arlington-Alexandria, DC-VA-MD-WV",38.981567,-77.534894,,ARCLVAXARS0,,Not Connected,Near Net,Commercial Building,703,327,236,,,Fiber,,FIBERLIGHT LLC,,,,,,,,,,N,,,42427,,Redstone,,Ter,,,,,,,,No,1501+ feet,1695.0,,2174.0,,,,,,,,,,,,,,,,,,,,,,,,,,,,,,,,,,,,,,,,,,,,,,,,,,,,,,,,,,,,,,,,,,,,,,,,,,,,,,,,,,,,,,,,,,,,,,,,,,,,59,,,,delta_new
25261 Beach Pl,25261 Beach Pl,Chantilly,VA,20152,USA,"Washington-Arlington-Alexandria, DC-VA-MD-WV",38.922377,-77.540252,,ARCLVAXARS0,,Not Connected,Near Net,Commercial Building,703,327,236,,,Fiber,,FIBERLIGHT LLC,,,,,,,,,,N,,,25261,,Beach,,Pl,,,,,,,,No,1501+ feet,1684.0,,2667.0,,,,,,,,,,,,,,,,,,,,,,,,,,,,,,,,,,,,,,,,,,,,,,,,,,,,,,,,,,,,,,,,,,,,,,,,,,,,,,,,,,,,,,,,,,,,,,,,,,,,68,,,,delta_new
44206 Lavin Ln,44206 Lavin Ln,Chantilly,VA,20152,USA,"Washington-Arlington-Alexandria, DC-VA-MD-WV",38.916581,-77.473656,,ARCLVAXARS0,,Not Connected,Near Net,Commercial Building,703,327,236,,,Fiber,,FIBERLIGHT LLC,,,,,,,,,,N,,,44206,,Lavin,,Ln,,,,,,,,No,1501+ feet,1673.0,,1992.0,,,,,,,,,,,,,,,,,,,,,,,,,,,,,,,,,,,,,,,,,,,,,,,,,,,,,,,,,,,,,,,,,,,,,,,,,,,,,,,,,,,,,,,,,,,,,,,,,,,,74,,,,delta_new
43028 Demerrit St,43028 Demerrit St,Chantilly,VA,20152,USA,"Washington-Arlington-Alexandria, DC-VA-MD-WV",38.913073,-77.514684,,ARCLVAXARS0,,Not Connected,Near Net,Commercial Building,703,327,236,,,Fiber,,FIBERLIGHT LLC,,,,,,,,,,N,,,43028,,Demerrit,,St,,,,,,,,waterways - stream,1501+ feet,1668.0,,1830.0,,,,,,,,,,,,,,,,,,,,,,,,,,,,,,,,,,,,,,,,,,,,,,,,,,,,,,,,,,,,,,,,,,,,,,,,,,,,,,,,,,,,,,,,,,,,,,,,,,,,79,,,,delta_new
4100B Westfax Dr,4100B Westfax Dr,Chantilly,VA,20151,USA,"Washington-Arlington-Alexandria, DC-VA-MD-WV",38.899109,-77.453641,,CNVIVACTDS0,,Not Connected,Near Net,Commercial Building,703,222,236,,,Fiber,,FIBERLIGHT LLC,,,,,,,,,,N,,,4100B,,Westfax,,Dr,,,,,,,,No,1501+ feet,1683.0,,2490.0,,,,,,,,,,,,,,,,,,,,,,,,,,,,,,,,,,,,,,,,,,,,,,,,,,,,,,,,,,,,,,,,,,,,,,,,,,,,,,,,,,,,,,,,,,,,,,,,,,,,80,,,,delta_new
40987 Misty Vale Cir,40987 Misty Vale Cir,Aldie,VA,20105,USA,"Washington-Arlington-Alexandria, DC-VA-MD-WV",38.951588,-77.5851,,ARCLVAXARS0,,Not Connected,Near Net,Commercial Building,703,327,236,,,Fiber,,FIBERLIGHT LLC,,,,,,,,,,N,,,40987,,Misty Vale,,Cir,,,,,,,,No,1501+ feet,1714.0,,1719.0,,,,,,,,,,,,,,,,,,,,,,,,,,,,,,,,,,,,,,,,,,,,,,,,,,,,,,,,,,,,,,,,,,,,,,,,,,,,,,,,,,,,,,,,,,,,,,,,,,,,95,,,,delta_new
25218 Beach Pl,25218 Beach Pl,Chantilly,VA,20152,USA,"Washington-Arlington-Alexandria, DC-VA-MD-WV",38.921525,-77.540161,,ARCLVAXARS0,,Not Connected,Near Net,Commercial Building,703,327,236,,,Fiber,,FIBERLIGHT LLC,,,,,,,,,,N,,,25218,,Beach,,Pl,,,,,,,,No,1501+ feet,1732.0,,2258.0,,,,,,,,,,,,,,,,,,,,,,,,,,,,,,,,,,,,,,,,,,,,,,,,,,,,,,,,,,,,,,,,,,,,,,,,,,,,,,,,,,,,,,,,,,,,,,,,,,,,96,,,,delta_new
25294 Gothic Sq,25294 Gothic Sq,Chantilly,VA,20152,USA,"Washington-Arlington-Alexandria, DC-VA-MD-WV",38.917961,-77.54063,,ARCLVAXARS0,,Not Connected,Near Net,Commercial Building,703,327,236,,,Fiber,,FIBERLIGHT LLC,,,,,,,,,,N,,,25294,,Gothic,,Sq,,,,,,,,No,1501+ feet,1727.0,,1945.0,,,,,,,,,,,,,,,,,,,,,,,,,,,,,,,,,,,,,,,,,,,,,,,,,,,,,,,,,,,,,,,,,,,,,,,,,,,,,,,,,,,,,,,,,,,,,,,,,,,,99,,,,delta_new
41196 Turkey Oak Dr,41196 Turkey Oak Dr,Aldie,VA,20105,USA,"Washington-Arlington-Alexandria, DC-VA-MD-WV",38.938342,-77.576925,,ARCLVAXARS0,,Not Connected,Near Net,Commercial Building,703,327,236,,,Fiber,,FIBERLIGHT LLC,,,,,,,,,,N,,,41196,,Turkey Oak,,Dr,,,,,,,,No,1501+ feet,1724.0,,1738.0,,,,,,,,,,,,,,,,,,,,,,,,,,,,,,,,,,,,,,,,,,,,,,,,,,,,,,,,,,,,,,,,,,,,,,,,,,,,,,,,,,,,,,,,,,,,,,,,,,,,102,,,,delta_new
42181 Gentle Falls Dr,42181 Gentle Falls Dr,Ashburn,VA,20148,USA,"Washington-Arlington-Alexandria, DC-VA-MD-WV",38.969106,-77.543008,,ARCLVAXARS0,,Not Connected,Near Net,Commercial Building,703,327,236,,,Fiber,,FIBERLIGHT LLC,,,,,,,,,,N,,,42181,,Gentle Falls,,Dr,,,,,,,,No,1501+ feet,1721.0,,2116.0,,,,,,,,,,,,,,,,,,,,,,,,,,,,,,,,,,,,,,,,,,,,,,,,,,,,,,,,,,,,,,,,,,,,,,,,,,,,,,,,,,,,,,,,,,,,,,,,,,,,104,,,,delta_new
43530 Freeport Pl,43530 Freeport Pl,Sterling,VA,20166,USA,"Washington-Arlington-Alexandria, DC-VA-MD-WV",38.97122,-77.497029,,DLLSVAXARS0,,Not Connected,Near Net,Commercial Building,703,260,236,,,Fiber,,FIBERLIGHT LLC,,,,,,,,,,N,,,43530,,Freeport,,Pl,,,,,,,,No,1501+ feet,1719.0,,1668.0,,,,,,,,,,,,,,,,,,,,,,,,,,,,,,,,,,,,,,,,,,,,,,,,,,,,,,,,,,,,,,,,,,,,,,,,,,,,,,,,,,,,,,,,,,,,,,,,,,,,105,,,,delta_new
22018 Ayr Hill Ct,22018 Ayr Hill Ct,Ashburn,VA,20148,USA,"Washington-Arlington-Alexandria, DC-VA-MD-WV",39.007641,-77.520547,,ASBNVAASDS0,,Not Connected,Near Net,Commercial Building,703,723,246,,,Fiber,,FIBERLIGHT LLC,,,,,,,,,,N,,,22018,,Ayr Hill,,Ct,,,,,,,,No,1501+ feet,1715.0,,2611.0,,,,,,,,,,,,,,,,,,,,,,,,,,,,,,,,,,,,,,,,,,,,,,,,,,,,,,,,,,,,,,,,,,,,,,,,,,,,,,,,,,,,,,,,,,,,,,,,,,,,106,,,,delta_new
42177 Gentle Falls Dr,42177 Gentle Falls Dr,Ashburn,VA,20148,USA,"Washington-Arlington-Alexandria, DC-VA-MD-WV",38.969115,-77.54337,,ARCLVAXARS0,,Not Connected,Near Net,Commercial Building,703,327,236,,,Fiber,,FIBERLIGHT LLC,,,,,,,,,,N,,,42177,,Gentle Falls,,Dr,,,,,,,,No,1501+ feet,1730.0,,2232.0,,,,,,,,,,,,,,,,,,,,,,,,,,,,,,,,,,,,,,,,,,,,,,,,,,,,,,,,,,,,,,,,,,,,,,,,,,,,,,,,,,,,,,,,,,,,,,,,,,,,107,,,,delta_new
24961 Devonian Dr,24961 Devonian Dr,Aldie,VA,20105,USA,"Washington-Arlington-Alexandria, DC-VA-MD-WV",38.927156,-77.549404,,ARCLVAXARS0,,Not Connected,Near Net,Commercial Building,703,327,236,,,Fiber,,FIBERLIGHT LLC,,,,,,,,,,N,,,24961,,Devonian,,Dr,,,,,,,,No,1501+ feet,2020.0,,1984.0,,,,,,,,,,,,,,,,,,,,,,,,,,,,,,,,,,,,,,,,,,,,,,,,,,,,,,,,,,,,,,,,,,,,,,,,,,,,,,,,,,,,,,,,,,,,,,,,,,,,111,,,,delta_new
25545 Fretton Sq,25545 Fretton Sq,Chantilly,VA,20152,USA,"Washington-Arlington-Alexandria, DC-VA-MD-WV",38.910446,-77.513598,,ARCLVAXARS0,,Not Connected,Near Net,Commercial Building,703,327,236,,,Fiber,,FIBERLIGHT LLC,,,,,,,,,,N,,,25545,,Fretton,,Sq,,,,,,,,waterways - stream,1501+ feet,2010.0,,2784.0,,,,,,,,,,,,,,,,,,,,,,,,,,,,,,,,,,,,,,,,,,,,,,,,,,,,,,,,,,,,,,,,,,,,,,,,,,,,,,,,,,,,,,,,,,,,,,,,,,,,119,,,,delta_new
26097 Jawaher Pl,26097 Jawaher Pl,Aldie,VA,20105,USA,"Washington-Arlington-Alexandria, DC-VA-MD-WV",38.894177,-77.575301,,HYMRVAXARS2,,Not Connected,Near Net,Commercial Building,571,248,236,,,Fiber,,FIBERLIGHT LLC,,,,,,,,,,N,,,26097,,Jawaher,,Pl,,,,,,,,No,1501+ feet,2008.0,,2269.0,,,,,,,,,,,,,,,,,,,,,,,,,,,,,,,,,,,,,,,,,,,,,,,,,,,,,,,,,,,,,,,,,,,,,,,,,,,,,,,,,,,,,,,,,,,,,,,,,,,,121,,,,delta_new
42041 Bear Tooth Dr,42041 Bear Tooth Dr,Aldie,VA,20105,USA,"Washington-Arlington-Alexandria, DC-VA-MD-WV",38.929341,-77.548574,,ARCLVAXARS0,,Not Connected,Near Net,Commercial Building,703,327,236,,,Fiber,,FIBERLIGHT LLC,,,,,,,,,,N,,,42041,,Bear Tooth,,Dr,,,,,,,,No,1501+ feet,1989.0,,2415.0,,,,,,,,,,,,,,,,,,,,,,,,,,,,,,,,,,,,,,,,,,,,,,,,,,,,,,,,,,,,,,,,,,,,,,,,,,,,,,,,,,,,,,,,,,,,,,,,,,,,126,,,,delta_new
43072 Walnutgrove Ln,43072 Walnutgrove Ln,Chantilly,VA,20152,USA,"Washington-Arlington-Alexandria, DC-VA-MD-WV",38.919357,-77.51268,,ARCLVAXARS0,,Not Connected,Near Net,Commercial Building,703,327,236,,,Fiber,,FIBERLIGHT LLC,,,,,,,,,,N,,,43072,,Walnutgrove,,Ln,,,,,,,,No,1501+ feet,1982.0,,2559.0,,,,,,,,,,,,,,,,,,,,,,,,,,,,,,,,,,,,,,,,,,,,,,,,,,,,,,,,,,,,,,,,,,,,,,,,,,,,,,,,,,,,,,,,,,,,,,,,,,,,133,,,,delta_new
42015 Zircon Dr,42015 Zircon Dr,Aldie,VA,20105,USA,"Washington-Arlington-Alexandria, DC-VA-MD-WV",38.926044,-77.549794,,ARCLVAXARS0,,Not Connected,Near Net,Commercial Building,703,327,236,,,Fiber,,FIBERLIGHT LLC,,,,,,,,,,N,,,42015,,Zircon,,Dr,,,,,,,,No,1501+ feet,2028.0,,2300.0,,,,,,,,,,,,,,,,,,,,,,,,,,,,,,,,,,,,,,,,,,,,,,,,,,,,,,,,,,,,,,,,,,,,,,,,,,,,,,,,,,,,,,,,,,,,,,,,,,,,138,,,,delta_new
22965 White Ibis Dr,22965 White Ibis Dr,Ashburn,VA,20148,USA,"Washington-Arlington-Alexandria, DC-VA-MD-WV",38.981869,-77.532797,,ARCLVAXARS0,,Not Connected,Near Net,Commercial Building,703,327,236,,,Fiber,,FIBERLIGHT LLC,,,,,,,,,,N,,,22965,,White Ibis,,Dr,,,,,,,,No,1501+ feet,2066.0,,2596.0,,,,,,,,,,,,,,,,,,,,,,,,,,,,,,,,,,,,,,,,,,,,,,,,,,,,,,,,,,,,,,,,,,,,,,,,,,,,,,,,,,,,,,,,,,,,,,,,,,,,140,,,,delta_new
24973 Devonian Dr,24973 Devonian Dr,Aldie,VA,20105,USA,"Washington-Arlington-Alexandria, DC-VA-MD-WV",38.926767,-77.549638,,ARCLVAXARS0,,Not Connected,Near Net,Commercial Building,703,327,236,,,Fiber,,FIBERLIGHT LLC,,,,,,,,,,N,,,24973,,Devonian,,Dr,,,,,,,,No,1501+ feet,2061.0,,2144.0,,,,,,,,,,,,,,,,,,,,,,,,,,,,,,,,,,,,,,,,,,,,,,,,,,,,,,,,,,,,,,,,,,,,,,,,,,,,,,,,,,,,,,,,,,,,,,,,,,,,142,,,,delta_new
14513H Lee Jackson Memorial Hwy,14513H Lee Jackson Memorial Hwy,Chantilly,VA,20151,USA,"Washington-Arlington-Alexandria, DC-VA-MD-WV",38.900925,-77.449885,,CNVIVACTDS0,,Not Connected,Near Net,Commercial Building,703,222,236,,,Fiber,,FIBERLIGHT LLC,,,,,,,,,,N,,,14513H,,Lee Jackson Memorial,,Hwy,,,,,,,,waterways - stream,1501+ feet,2059.0,,2108.0,,,,,,,,,,,,,,,,,,,,,,,,,,,,,,,,,,,,,,,,,,,,,,,,,,,,,,,,,,,,,,,,,,,,,,,,,,,,,,,,,,,,,,,,,,,,,,,,,,,,144,,,,delta_new
4200A Pleasant Valley Rd,4200A Pleasant Valley Rd,Chantilly,VA,20151,USA,"Washington-Arlington-Alexandria, DC-VA-MD-WV",38.906384,-77.475654,,CNVIVACTDS0,,Not Connected,Near Net,Commercial Building,703,222,236,,,Fiber,,FIBERLIGHT LLC,,,,,,,,,,N,,,4200A,,Pleasant Valley,,Rd,,,,,,,,No,1501+ feet,2057.0,,2439.0,,,,,,,,,,,,,,,,,,,,,,,,,,,,,,,,,,,,,,,,,,,,,,,,,,,,,,,,,,,,,,,,,,,,,,,,,,,,,,,,,,,,,,,,,,,,,,,,,,,,146,,,,delta_new
44122 Mercure Cir,44122 Mercure Cir,Sterling,VA,20166,USA,"Washington-Arlington-Alexandria, DC-VA-MD-WV",38.984657,-77.482202,,DLLSVAXARS0,,Not Connected,Near Net,Commercial Building,703,260,236,,,Fiber,,FIBERLIGHT LLC,,,,,,,,,,N,,,44122,,Mercure,,Cir,,,,,,,,No,1501+ feet,2052.0,,2764.0,,,,,,,,,,,,,,,,,,,,,,,,,,,,,,,,,,,,,,,,,,,,,,,,,,,,,,,,,,,,,,,,,,,,,,,,,,,,,,,,,,,,,,,,,,,,,,,,,,,,151,,,,delta_new
43422 Stukely Dr,43422 Stukely Dr,Sterling,VA,20166,USA,"Washington-Arlington-Alexandria, DC-VA-MD-WV",38.974177,-77.497062,,DLLSVAXARS0,,Not Connected,Near Net,Commercial Building,703,260,236,,,Fiber,,FIBERLIGHT LLC,,,,,,,,,,N,,,43422,,Stukely,,Dr,,,,,,,,No,1501+ feet,2040.0,,1834.0,,,,,,,,,,,,,,,,,,,,,,,,,,,,,,,,,,,,,,,,,,,,,,,,,,,,,,,,,,,,,,,,,,,,,,,,,,,,,,,,,,,,,,,,,,,,,,,,,,,,155,,,,delta_new
24800 Stone Pillar Dr,24800 Stone Pillar Dr,Aldie,VA,20105,USA,"Washington-Arlington-Alexandria, DC-VA-MD-WV",38.930847,-77.548092,,ARCLVAXARS0,,Not Connected,Near Net,Commercial Building,703,327,236,,,Fiber,,FIBERLIGHT LLC,,,,,,,,,,N,,,24800,,Stone Pillar,,Dr,,,,,,,,No,1501+ feet,2029.0,,2961.0,,,,,,,,,,,,,,,,,,,,,,,,,,,,,,,,,,,,,,,,,,,,,,,,,,,,,,,,,,,,,,,,,,,,,,,,,,,,,,,,,,,,,,,,,,,,,,,,,,,,160,,,,delta_new
42071 Fremont Preserve Sq,42071 Fremont Preserve Sq,Aldie,VA,20105,USA,"Washington-Arlington-Alexandria, DC-VA-MD-WV",38.935309,-77.548692,,ARCLVAXARS0,,Not Connected,Near Net,Commercial Building,703,327,236,,,Fiber,,FIBERLIGHT LLC,,,,,,,,,,N,,,42071,,Fremont Preserve,,Sq,,,,,,,,No,1501+ feet,2029.0,,2345.0,,,,,,,,,,,,,,,,,,,,,,,,,,,,,,,,,,,,,,,,,,,,,,,,,,,,,,,,,,,,,,,,,,,,,,,,,,,,,,,,,,,,,,,,,,,,,,,,,,,,161,,,,delta_new
24342 Sparrow Pond Ct,24342 Sparrow Pond Ct,Aldie,VA,20105,USA,"Washington-Arlington-Alexandria, DC-VA-MD-WV",38.943454,-77.570729,,ARCLVAXARS0,,Not Connected,Near Net,Commercial Building,703,327,236,,,Fiber,,FIBERLIGHT LLC,,,,,,,,,,N,,,24342,,Sparrow Pond,,Ct,,,,,,,,No,1501+ feet,1979.0,,2822.0,,,,,,,,,,,,,,,,,,,,,,,,,,,,,,,,,,,,,,,,,,,,,,,,,,,,,,,,,,,,,,,,,,,,,,,,,,,,,,,,,,,,,,,,,,,,,,,,,,,,165,,,,delta_new
42112 Fremont Preserve Sq,42112 Fremont Preserve Sq,Aldie,VA,20105,USA,"Washington-Arlington-Alexandria, DC-VA-MD-WV",38.934869,-77.546551,,ARCLVAXARS0,,Not Connected,Near Net,Commercial Building,703,327,236,,,Fiber,,FIBERLIGHT LLC,,,,,,,,,,N,,,42112,,Fremont Preserve,,Sq,,,,,,,,No,1501+ feet,1888.0,,2657.0,,,,,,,,,,,,,,,,,,,,,,,,,,,,,,,,,,,,,,,,,,,,,,,,,,,,,,,,,,,,,,,,,,,,,,,,,,,,,,,,,,,,,,,,,,,,,,,,,,,,173,,,,delta_new
21809 Wingfoot Ct,21809 Wingfoot Ct,Ashburn,VA,20148,USA,"Washington-Arlington-Alexandria, DC-VA-MD-WV",39.013711,-77.511326,,ASBNVAASDS0,,Not Connected,Near Net,Commercial Building,703,723,246,,,Fiber,,FIBERLIGHT LLC,,,,,,,,,,N,,,21809,,Wingfoot,,Ct,,,,,,,,waterways - ditch,1501+ feet,1883.0,,2673.0,,,,,,,,,,,,,,,,,,,,,,,,,,,,,,,,,,,,,,,,,,,,,,,,,,,,,,,,,,,,,,,,,,,,,,,,,,,,,,,,,,,,,,,,,,,,,,,,,,,,176,,,,delta_new
24995 Coats Sq,24995 Coats Sq,Aldie,VA,20105,USA,"Washington-Arlington-Alexandria, DC-VA-MD-WV",38.926517,-77.55916,,ARCLVAXARS0,,Not Connected,Near Net,Commercial Building,703,327,236,,,Fiber,,FIBERLIGHT LLC,,,,,,,,,,N,,,24995,,Coats,,Sq,,,,,,,,No,1501+ feet,1880.0,,2538.0,,,,,,,,,,,,,,,,,,,,,,,,,,,,,,,,,,,,,,,,,,,,,,,,,,,,,,,,,,,,,,,,,,,,,,,,,,,,,,,,,,,,,,,,,,,,,,,,,,,,179,,,,delta_new
42306 Shoover Sq,42306 Shoover Sq,Chantilly,VA,20152,USA,"Washington-Arlington-Alexandria, DC-VA-MD-WV",38.920022,-77.539818,,ARCLVAXARS0,,Not Connected,Near Net,Commercial Building,703,327,236,,,Fiber,,FIBERLIGHT LLC,,,,,,,,,,N,,,42306,,Shoover,,Sq,,,,,,,,No,1501+ feet,1869.0,,2297.0,,,,,,,,,,,,,,,,,,,,,,,,,,,,,,,,,,,,,,,,,,,,,,,,,,,,,,,,,,,,,,,,,,,,,,,,,,,,,,,,,,,,,,,,,,,,,,,,,,,,185,,,,delta_new
4180 Lafayette Center Dr,4180 Lafayette Center Dr,Chantilly,VA,20151,USA,"Washington-Arlington-Alexandria, DC-VA-MD-WV",38.904874,-77.470571,,CNVIVACTDS0,,Not Connected,Near Net,Commercial Building,703,222,236,,,Fiber,,FIBERLIGHT LLC,,,,,,,,,,N,,,4180,,Lafayette Center,,Dr,,,,,,,,No,1501+ feet,1867.0,,2532.0,,,,,,,,,,,,,,,,,,,,,,,,,,,,,,,,,,,,,,,,,,,,,,,,,,,,,,,,,,,,,,,,,,,,,,,,,,,,,,,,,,,,,,,,,,,,,,,,,,,,187,,,,delta_new
40915 Braddock Rd,40915 Braddock Rd,Aldie,VA,20105,USA,"Washington-Arlington-Alexandria, DC-VA-MD-WV",38.92734,-77.589271,,ARCLVAXARS0,,Not Connected,Near Net,Commercial Building,703,327,236,,,Fiber,,FIBERLIGHT LLC,,,,,,,,,,N,,,40915,,Braddock,,Rd,,,,,,,,No,1501+ feet,1880.0,,2891.0,,,,,,,,,,,,,,,,,,,,,,,,,,,,,,,,,,,,,,,,,,,,,,,,,,,,,,,,,,,,,,,,,,,,,,,,,,,,,,,,,,,,,,,,,,,,,,,,,,,,191,,,,delta_new
43039 Golf View Dr,43039 Golf View Dr,Chantilly,VA,20152,USA,"Washington-Arlington-Alexandria, DC-VA-MD-WV",38.911078,-77.513959,,ARCLVAXARS0,,Not Connected,Near Net,Commercial Building,703,327,236,,,Fiber,,FIBERLIGHT LLC,,,,,,,,,,N,,,43039,,Golf View,,Dr,,,,,,,,waterways - stream,1501+ feet,1907.0,,2342.0,,,,,,,,,,,,,,,,,,,,,,,,,,,,,,,,,,,,,,,,,,,,,,,,,,,,,,,,,,,,,,,,,,,,,,,,,,,,,,,,,,,,,,,,,,,,,,,,,,,,193,,,,delta_new
24658 Nettle Mill Sq,24658 Nettle Mill Sq,Aldie,VA,20105,USA,"Washington-Arlington-Alexandria, DC-VA-MD-WV",38.935314,-77.547817,,ARCLVAXARS0,,Not Connected,Near Net,Commercial Building,703,327,236,,,Fiber,,FIBERLIGHT LLC,,,,,,,,,,N,,,24658,,Nettle Mill,,Sq,,,,,,,,No,1501+ feet,1909.0,,2353.0,,,,,,,,,,,,,,,,,,,,,,,,,,,,,,,,,,,,,,,,,,,,,,,,,,,,,,,,,,,,,,,,,,,,,,,,,,,,,,,,,,,,,,,,,,,,,,,,,,,,194,,,,delta_new
42821 Heritage Oak Ct,42821 Heritage Oak Ct,Ashburn,VA,20148,USA,"Washington-Arlington-Alexandria, DC-VA-MD-WV",39.008596,-77.520521,,ASBNVAASDS0,,Not Connected,Near Net,Commercial Building,703,723,246,,,Fiber,,FIBERLIGHT LLC,,,,,,,,,,N,,,42821,,Heritage Oak,,Ct,,,,,,,,No,1501+ feet,1963.0,,2252.0,,,,,,,,,,,,,,,,,,,,,,,,,,,,,,,,,,,,,,,,,,,,,,,,,,,,,,,,,,,,,,,,,,,,,,,,,,,,,,,,,,,,,,,,,,,,,,,,,,,,198,,,,delta_new
43911 Thorncroft Ter,43911 Thorncroft Ter,Ashburn,VA,20148,USA,"Washington-Arlington-Alexandria, DC-VA-MD-WV",38.989633,-77.482768,,ASBNVAASDS0,,Not Connected,Near Net,Commercial Building,703,723,246,,,Fiber,,FIBERLIGHT LLC,,,,,,,,,,N,,,43911,,Thorncroft,,Ter,,,,,,,,No,1501+ feet,1954.0,,2703.0,,,,,,,,,,,,,,,,,,,,,,,,,,,,,,,,,,,,,,,,,,,,,,,,,,,,,,,,,,,,,,,,,,,,,,,,,,,,,,,,,,,,,,,,,,,,,,,,,,,,202,,,,delta_new
42495 John Mosby Hwy,42495 John Mosby Hwy,Chantilly,VA,20152,USA,"Washington-Arlington-Alexandria, DC-VA-MD-WV",38.934406,-77.533362,,ARCLVAXARS0,,Not Connected,Near Net,Commercial Building,703,327,236,,,Fiber,,FIBERLIGHT LLC,,,,,,,,,,N,,,42495,,John Mosby,,Hwy,,,,,,,,No,1501+ feet,1954.0,,1885.0,,,,,,,,,,,,,,,,,,,,,,,,,,,,,,,,,,,,,,,,,,,,,,,,,,,,,,,,,,,,,,,,,,,,,,,,,,,,,,,,,,,,,,,,,,,,,,,,,,,,203,,,,delta_new
43907 Thorncroft Ter,43907 Thorncroft Ter,Ashburn,VA,20148,USA,"Washington-Arlington-Alexandria, DC-VA-MD-WV",38.989723,-77.482909,,ASBNVAASDS0,,Not Connected,Near Net,Commercial Building,703,723,246,,,Fiber,,FIBERLIGHT LLC,,,,,,,,,,N,,,43907,,Thorncroft,,Ter,,,,,,,,No,1501+ feet,1908.0,,2647.0,,,,,,,,,,,,,,,,,,,,,,,,,,,,,,,,,,,,,,,,,,,,,,,,,,,,,,,,,,,,,,,,,,,,,,,,,,,,,,,,,,,,,,,,,,,,,,,,,,,,206,,,,delta_new
42503 John Mosby Hwy,42503 John Mosby Hwy,Chantilly,VA,20152,USA,"Washington-Arlington-Alexandria, DC-VA-MD-WV",38.934081,-77.533589,,ARCLVAXARS0,,Not Connected,Near Net,Commercial Building,703,327,236,,,Fiber,,FIBERLIGHT LLC,,,,,,,,,,N,,,42503,,John Mosby,,Hwy,,,,,,,,No,1501+ feet,1936.0,,2130.0,,,,,,,,,,,,,,,,,,,,,,,,,,,,,,,,,,,,,,,,,,,,,,,,,,,,,,,,,,,,,,,,,,,,,,,,,,,,,,,,,,,,,,,,,,,,,,,,,,,,208,,,,delta_new
24352 Eagles Landing Pl,24352 Eagles Landing Pl,Aldie,VA,20105,USA,"Washington-Arlington-Alexandria, DC-VA-MD-WV",38.942826,-77.568742,,ARCLVAXARS0,,Not Connected,Near Net,Commercial Building,703,327,236,,,Fiber,,FIBERLIGHT LLC,,,,,,,,,,N,,,24352,,Eagles Landing,,Pl,,,,,,,,No,1501+ feet,1929.0,,2310.0,,,,,,,,,,,,,,,,,,,,,,,,,,,,,,,,,,,,,,,,,,,,,,,,,,,,,,,,,,,,,,,,,,,,,,,,,,,,,,,,,,,,,,,,,,,,,,,,,,,,211,,,,delta_new
25238 Crossfield Dr,25238 Crossfield Dr,Chantilly,VA,20152,USA,"Washington-Arlington-Alexandria, DC-VA-MD-WV",38.919288,-77.523479,,ARCLVAXARS0,,Not Connected,Near Net,Commercial Building,703,327,236,,,Fiber,,FIBERLIGHT LLC,,,,,,,,,,N,,,25238,,Crossfield,,Dr,,,,,,,,No,1501+ feet,1940.0,,2232.0,,,,,,,,,,,,,,,,,,,,,,,,,,,,,,,,,,,,,,,,,,,,,,,,,,,,,,,,,,,,,,,,,,,,,,,,,,,,,,,,,,,,,,,,,,,,,,,,,,,,219,,,,delta_new
40433 Milford Dr,40433 Milford Dr,Ashburn,VA,20148,USA,"Washington-Arlington-Alexandria, DC-VA-MD-WV",39.011968,-77.509117,,ASBNVAASDS0,,Not Connected,Near Net,Commercial Building,703,723,246,,,Fiber,,FIBERLIGHT LLC,,,,,,,,,,N,,,40433,,Milford,,Dr,,,,,,,,waterways - ditch,1501+ feet,1389.0,,2507.0,,,,,,,,,,,,,,,,,,,,,,,,,,,,,,,,,,,,,,,,,,,,,,,,,,,,,,,,,,,,,,,,,,,,,,,,,,,,,,,,,,,,,,,,,,,,,,,,,,,,229,,,,delta_new
40958 Sweet Thorn Ln,40958 Sweet Thorn Ln,Aldie,VA,20105,USA,"Washington-Arlington-Alexandria, DC-VA-MD-WV",38.926118,-77.587584,,ARCLVAXARS0,,Not Connected,Near Net,Commercial Building,703,327,236,,,Fiber,,FIBERLIGHT LLC,,,,,,,,,,N,,,40958,,Sweet Thorn,,Ln,,,,,,,,No,1501+ feet,1384.0,,1551.0,,,,,,,,,,,,,,,,,,,,,,,,,,,,,,,,,,,,,,,,,,,,,,,,,,,,,,,,,,,,,,,,,,,,,,,,,,,,,,,,,,,,,,,,,,,,,,,,,,,,232,,,,delta_new
44083 Mercure Cir,44083 Mercure Cir,Sterling,VA,20166,USA,"Washington-Arlington-Alexandria, DC-VA-MD-WV",38.98371,-77.479728,,DLLSVAXARS0,,Not Connected,Near Net,Commercial Building,703,260,236,,,Fiber,,FIBERLIGHT LLC,,,,,,,,,,N,,,44083,,Mercure,,Cir,,,,,,,,No,1501+ feet,1375.0,,1776.0,,,,,,,,,,,,,,,,,,,,,,,,,,,,,,,,,,,,,,,,,,,,,,,,,,,,,,,,,,,,,,,,,,,,,,,,,,,,,,,,,,,,,,,,,,,,,,,,,,,,235,,,,delta_new
41580 Tring Ln,41580 Tring Ln,Aldie,VA,20105,USA,"Washington-Arlington-Alexandria, DC-VA-MD-WV",38.920412,-77.565252,,ARCLVAXARS0,,Not Connected,Near Net,Commercial Building,703,327,236,,,Fiber,,FIBERLIGHT LLC,,,,,,,,,,N,,,41580,,Tring,,Ln,,,,,,,,No,1001 - 1500 feet,1371.0,,1472.0,,,,,,,,,,,,,,,,,,,,,,,,,,,,,,,,,,,,,,,,,,,,,,,,,,,,,,,,,,,,,,,,,,,,,,,,,,,,,,,,,,,,,,,,,,,,,,,,,,,,237,,,,delta_new
25474 Brickell Dr,25474 Brickell Dr,Chantilly,VA,20152,USA,"Washington-Arlington-Alexandria, DC-VA-MD-WV",38.912674,-77.515565,,ARCLVAXARS0,,Not Connected,Near Net,Commercial Building,703,327,236,,,Fiber,,FIBERLIGHT LLC,,,,,,,,,,N,,,25474,,Brickell,,Dr,,,,,,,,waterways - stream,1501+ feet,1370.0,,1612.0,,,,,,,,,,,,,,,,,,,,,,,,,,,,,,,,,,,,,,,,,,,,,,,,,,,,,,,,,,,,,,,,,,,,,,,,,,,,,,,,,,,,,,,,,,,,,,,,,,,,238,,,,delta_new
43172 Barnstead Dr,43172 Barnstead Dr,Ashburn,VA,20148,USA,"Washington-Arlington-Alexandria, DC-VA-MD-WV",38.980046,-77.507837,,ASBNVAASDS0,,Not Connected,Near Net,Commercial Building,703,723,246,,,Fiber,,FIBERLIGHT LLC,,,,,,,,,,N,,,43172,,Barnstead,,Dr,,,,,,,,No,1501+ feet,1363.0,,2605.0,,,,,,,,,,,,,,,,,,,,,,,,,,,,,,,,,,,,,,,,,,,,,,,,,,,,,,,,,,,,,,,,,,,,,,,,,,,,,,,,,,,,,,,,,,,,,,,,,,,,240,,,,delta_new
42800 Smallwood Ter,42800 Smallwood Ter,Chantilly,VA,20152,USA,"Washington-Arlington-Alexandria, DC-VA-MD-WV",38.915188,-77.522748,,ARCLVAXARS0,,Not Connected,Near Net,Commercial Building,703,327,236,,,Fiber,,FIBERLIGHT LLC,,,,,,,,,,N,,,42800,,Smallwood,,Ter,,,,,,,,No,1001 - 1500 feet,1353.0,,1433.0,,,,,,,,,,,,,,,,,,,,,,,,,,,,,,,,,,,,,,,,,,,,,,,,,,,,,,,,,,,,,,,,,,,,,,,,,,,,,,,,,,,,,,,,,,,,,,,,,,,,244,,,,delta_new
44001 Vaira Ter,44001 Vaira Ter,Chantilly,VA,20152,USA,"Washington-Arlington-Alexandria, DC-VA-MD-WV",38.911043,-77.482633,,ARCLVAXARS0,,Not Connected,Near Net,Commercial Building,703,327,236,,,Fiber,,FIBERLIGHT LLC,,,,,,,,,,N,,,44001,,Vaira,,Ter,,,,,,,,No,1501+ feet,1435.0,,2941.0,,,,,,,,,,,,,,,,,,,,,,,,,,,,,,,,,,,,,,,,,,,,,,,,,,,,,,,,,,,,,,,,,,,,,,,,,,,,,,,,,,,,,,,,,,,,,,,,,,,,256,,,,delta_new
25055 Sullivan Ter,25055 Sullivan Ter,Aldie,VA,20105,USA,"Washington-Arlington-Alexandria, DC-VA-MD-WV",38.924464,-77.562159,,ARCLVAXARS0,,Not Connected,Near Net,Commercial Building,703,327,236,,,Fiber,,FIBERLIGHT LLC,,,,,,,,,,N,,,25055,,Sullivan,,Ter,,,,,,,,No,1501+ feet,1431.0,,1987.0,,,,,,,,,,,,,,,,,,,,,,,,,,,,,,,,,,,,,,,,,,,,,,,,,,,,,,,,,,,,,,,,,,,,,,,,,,,,,,,,,,,,,,,,,,,,,,,,,,,,259,,,,delta_new
43482 Ogden Pl,43482 Ogden Pl,Sterling,VA,20166,USA,"Washington-Arlington-Alexandria, DC-VA-MD-WV",38.967534,-77.497726,,DLLSVAXARS0,,Not Connected,Near Net,Commercial Building,703,260,236,,,Fiber,,FIBERLIGHT LLC,,,,,,,,,,N,,,43482,,Ogden,,Pl,,,,,,,,No,1501+ feet,1401.0,,2748.0,,,,,,,,,,,,,,,,,,,,,,,,,,,,,,,,,,,,,,,,,,,,,,,,,,,,,,,,,,,,,,,,,,,,,,,,,,,,,,,,,,,,,,,,,,,,,,,,,,,,260,,,,delta_new
42801 Ridgeway Dr,42801 Ridgeway Dr,Ashburn,VA,20148,USA,"Washington-Arlington-Alexandria, DC-VA-MD-WV",39.007694,-77.519312,,ASBNVAASDS0,,Not Connected,Near Net,Commercial Building,703,723,246,,,Fiber,,FIBERLIGHT LLC,,,,,,,,,,N,,,42801,,Ridgeway,,Dr,,,,,,,,No,1501+ feet,1422.0,,1562.0,,,,,,,,,,,,,,,,,,,,,,,,,,,,,,,,,,,,,,,,,,,,,,,,,,,,,,,,,,,,,,,,,,,,,,,,,,,,,,,,,,,,,,,,,,,,,,,,,,,,272,,,,delta_new
24845 Natural Bridge Pl,24845 Natural Bridge Pl,Aldie,VA,20105,USA,"Washington-Arlington-Alexandria, DC-VA-MD-WV",38.929736,-77.546856,,ARCLVAXARS0,,Not Connected,Near Net,Commercial Building,703,327,236,,,Fiber,,FIBERLIGHT LLC,,,,,,,,,,N,,,24845,,Natural Bridge,,Pl,,,,,,,,No,1501+ feet,1450.0,,2183.0,,,,,,,,,,,,,,,,,,,,,,,,,,,,,,,,,,,,,,,,,,,,,,,,,,,,,,,,,,,,,,,,,,,,,,,,,,,,,,,,,,,,,,,,,,,,,,,,,,,,273,,,,delta_new
25451 Lizzio Center Dr,25451 Lizzio Center Dr,Chantilly,VA,20152,USA,"Washington-Arlington-Alexandria, DC-VA-MD-WV",38.913099,-77.486723,,ARCLVAXARS0,,Not Connected,Near Net,Commercial Building,703,327,236,,,Fiber,,FIBERLIGHT LLC,,,,,,,,,,N,,,25451,,Lizzio Center,,Dr,,,,,,,,No,1501+ feet,1288.0,,2596.0,,,,,,,,,,,,,,,,,,,,,,,,,,,,,,,,,,,,,,,,,,,,,,,,,,,,,,,,,,,,,,,,,,,,,,,,,,,,,,,,,,,,,,,,,,,,,,,,,,,,277,,,,delta_new
24195 Crooked Oak Ct,24195 Crooked Oak Ct,Aldie,VA,20105,USA,"Washington-Arlington-Alexandria, DC-VA-MD-WV",38.948241,-77.586771,,ARCLVAXARS0,,Not Connected,Near Net,Commercial Building,703,327,236,,,Fiber,,FIBERLIGHT LLC,,,,,,,,,,N,,,24195,,Crooked Oak,,Ct,,,,,,,,No,1501+ feet,1287.0,,1544.0,,,,,,,,,,,,,,,,,,,,,,,,,,,,,,,,,,,,,,,,,,,,,,,,,,,,,,,,,,,,,,,,,,,,,,,,,,,,,,,,,,,,,,,,,,,,,,,,,,,,278,,,,delta_new
43887 Centergate Dr,43887 Centergate Dr,Ashburn,VA,20148,USA,"Washington-Arlington-Alexandria, DC-VA-MD-WV",38.998466,-77.48431,,ASBNVAASDS0,,Not Connected,Near Net,Commercial Building,703,723,246,,,Fiber,,FIBERLIGHT LLC,,,,,,,,,,N,,,43887,,Centergate,,Dr,,,,,,,,No,1501+ feet,1287.0,,1832.0,,,,,,,,,,,,,,,,,,,,,,,,,,,,,,,,,,,,,,,,,,,,,,,,,,,,,,,,,,,,,,,,,,,,,,,,,,,,,,,,,,,,,,,,,,,,,,,,,,,,279,,,,delta_new
24558 Amethyst Ln,24558 Amethyst Ln,Chantilly,VA,20152,USA,"Washington-Arlington-Alexandria, DC-VA-MD-WV",38.938304,-77.533379,,ARCLVAXARS0,,Not Connected,Near Net,Commercial Building,703,327,236,,,Fiber,,FIBERLIGHT LLC,,,,,,,,,,N,,,24558,,Amethyst,,Ln,,,,,,,,No,1501+ feet,1269.0,,2392.0,,,,,,,,,,,,,,,,,,,,,,,,,,,,,,,,,,,,,,,,,,,,,,,,,,,,,,,,,,,,,,,,,,,,,,,,,,,,,,,,,,,,,,,,,,,,,,,,,,,,288,,,,delta_new
23481 Adagio Ter,23481 Adagio Ter,Ashburn,VA,20148,USA,"Washington-Arlington-Alexandria, DC-VA-MD-WV",38.967656,-77.54126,,ARCLVAXARS0,,Not Connected,Near Net,Commercial Building,703,327,236,,,Fiber,,FIBERLIGHT LLC,,,,,,,,,,N,,,23481,,Adagio,,Ter,,,,,,,,No,1501+ feet,1267.0,,1949.0,,,,,,,,,,,,,,,,,,,,,,,,,,,,,,,,,,,,,,,,,,,,,,,,,,,,,,,,,,,,,,,,,,,,,,,,,,,,,,,,,,,,,,,,,,,,,,,,,,,,289,,,,delta_new
22069 Highview Trail Pl,22069 Highview Trail Pl,Ashburn,VA,20148,USA,"Washington-Arlington-Alexandria, DC-VA-MD-WV",39.00609,-77.520241,,ASBNVAASDS0,,Not Connected,Near Net,Commercial Building,703,723,246,,,Fiber,,FIBERLIGHT LLC,,,,,,,,,,N,,,22069,,Highview Trail,,Pl,,,,,,,,No,1501+ feet,1263.0,,2434.0,,,,,,,,,,,,,,,,,,,,,,,,,,,,,,,,,,,,,,,,,,,,,,,,,,,,,,,,,,,,,,,,,,,,,,,,,,,,,,,,,,,,,,,,,,,,,,,,,,,,292,,,,delta_new
41527 Cross Canter Dr,41527 Cross Canter Dr,Aldie,VA,20105,USA,"Washington-Arlington-Alexandria, DC-VA-MD-WV",38.907119,-77.567087,,ARCLVAXARS0,,Not Connected,Near Net,Commercial Building,703,327,236,,,Fiber,,FIBERLIGHT LLC,,,,,,,,,,N,,,41527,,Cross Canter,,Dr,,,,,,,,No,1501+ feet,1258.0,,1794.0,,,,,,,,,,,,,,,,,,,,,,,,,,,,,,,,,,,,,,,,,,,,,,,,,,,,,,,,,,,,,,,,,,,,,,,,,,,,,,,,,,,,,,,,,,,,,,,,,,,,295,,,,delta_new
42268 Providence Ridge Dr,42268 Providence Ridge Dr,Chantilly,VA,20152,USA,"Washington-Arlington-Alexandria, DC-VA-MD-WV",38.927676,-77.539337,,ARCLVAXARS0,,Not Connected,Near Net,Commercial Building,703,327,236,,,Fiber,,FIBERLIGHT LLC,,,,,,,,,,N,,,42268,,Providence Ridge,,Dr,,,,,,,,No,1001 - 1500 feet,1257.0,,1321.0,,,,,,,,,,,,,,,,,,,,,,,,,,,,,,,,,,,,,,,,,,,,,,,,,,,,,,,,,,,,,,,,,,,,,,,,,,,,,,,,,,,,,,,,,,,,,,,,,,,,296,,,,delta_new
42798 Pilgrim Sq,42798 Pilgrim Sq,Chantilly,VA,20152,USA,"Washington-Arlington-Alexandria, DC-VA-MD-WV",38.910756,-77.522668,,ARCLVAXARS0,,Not Connected,Near Net,Commercial Building,703,327,236,,,Fiber,,FIBERLIGHT LLC,,,,,,,,,,N,,,42798,,Pilgrim,,Sq,,,,,,,,No,1001 - 1500 feet,1267.0,,1480.0,,,,,,,,,,,,,,,,,,,,,,,,,,,,,,,,,,,,,,,,,,,,,,,,,,,,,,,,,,,,,,,,,,,,,,,,,,,,,,,,,,,,,,,,,,,,,,,,,,,,300,,,,delta_new
43680 Waxpool Rd,43680 Waxpool Rd,Ashburn,VA,20147,USA,"Washington-Arlington-Alexandria, DC-VA-MD-WV",39.015523,-77.493437,,ASBNVAASDS0,,Not Connected,Near Net,Commercial Building,703,723,246,,,Fiber,,FIBERLIGHT LLC,,,,,,,,,,N,,,43680,,Waxpool,,Rd,,,,,,,,waterways - ditch,1501+ feet,1338.0,,1981.0,,,,,,,,,,,,,,,,,,,,,,,,,,,,,,,,,,,,,,,,,,,,,,,,,,,,,,,,,,,,,,,,,,,,,,,,,,,,,,,,,,,,,,,,,,,,,,,,,,,,306,,,,delta_new
42949 Ridgeway Dr,42949 Ridgeway Dr,Ashburn,VA,20148,USA,"Washington-Arlington-Alexandria, DC-VA-MD-WV",39.010185,-77.516529,,ASBNVAASDS0,,Not Connected,Near Net,Commercial Building,703,723,246,,,Fiber,,FIBERLIGHT LLC,,,,,,,,,,N,,,42949,,Ridgeway,,Dr,,,,,,,,waterways - ditch,1501+ feet,1322.0,,1690.0,,,,,,,,,,,,,,,,,,,,,,,,,,,,,,,,,,,,,,,,,,,,,,,,,,,,,,,,,,,,,,,,,,,,,,,,,,,,,,,,,,,,,,,,,,,,,,,,,,,,316,,,,delta_new
44088 Mercure Cir,44088 Mercure Cir,Sterling,VA,20166,USA,"Washington-Arlington-Alexandria, DC-VA-MD-WV",38.982926,-77.480931,,DLLSVAXARS0,,Not Connected,Near Net,Commercial Building,703,260,236,,,Fiber,,FIBERLIGHT LLC,,,,,,,,,,N,,,44088,,Mercure,,Cir,,,,,,,,No,1501+ feet,1316.0,,1686.0,,,,,,,,,,,,,,,,,,,,,,,,,,,,,,,,,,,,,,,,,,,,,,,,,,,,,,,,,,,,,,,,,,,,,,,,,,,,,,,,,,,,,,,,,,,,,,,,,,,,319,,,,delta_new
40424 Lenah Run Cir,40424 Lenah Run Cir,Aldie,VA,20105,USA,"Washington-Arlington-Alexandria, DC-VA-MD-WV",38.947582,-77.587279,,ARCLVAXARS0,,Not Connected,Near Net,Commercial Building,703,327,236,,,Fiber,,FIBERLIGHT LLC,,,,,,,,,,N,,,40424,,Lenah Run,,Cir,,,,,,,,No,1501+ feet,1309.0,,1692.0,,,,,,,,,,,,,,,,,,,,,,,,,,,,,,,,,,,,,,,,,,,,,,,,,,,,,,,,,,,,,,,,,,,,,,,,,,,,,,,,,,,,,,,,,,,,,,,,,,,,323,,,,delta_new
25439 Kylemore Dr,25439 Kylemore Dr,Aldie,VA,20105,USA,"Washington-Arlington-Alexandria, DC-VA-MD-WV",38.914201,-77.567022,,ARCLVAXARS0,,Not Connected,Near Net,Commercial Building,703,327,236,,,Fiber,,FIBERLIGHT LLC,,,,,,,,,,N,,,25439,,Kylemore,,Dr,,,,,,,,No,1001 - 1500 feet,1304.0,,1480.0,,,,,,,,,,,,,,,,,,,,,,,,,,,,,,,,,,,,,,,,,,,,,,,,,,,,,,,,,,,,,,,,,,,,,,,,,,,,,,,,,,,,,,,,,,,,,,,,,,,,327,,,,delta_new
43217 Mitcham Sq,43217 Mitcham Sq,Ashburn,VA,20148,USA,"Washington-Arlington-Alexandria, DC-VA-MD-WV",38.972388,-77.507222,,ASBNVAASDS0,,Not Connected,Near Net,Commercial Building,703,723,246,,,Fiber,,FIBERLIGHT LLC,,,,,,,,,,N,,,43217,,Mitcham,,Sq,,,,,,,,No,1501+ feet,1322.0,,2572.0,,,,,,,,,,,,,,,,,,,,,,,,,,,,,,,,,,,,,,,,,,,,,,,,,,,,,,,,,,,,,,,,,,,,,,,,,,,,,,,,,,,,,,,,,,,,,,,,,,,,328,,,,delta_new
22920 Ladbrook Dr,22920 Ladbrook Dr,Sterling,VA,20166,USA,"Washington-Arlington-Alexandria, DC-VA-MD-WV",38.982431,-77.484261,,DLLSVAXARS0,,Not Connected,Near Net,Commercial Building,703,260,236,,,Fiber,,FIBERLIGHT LLC,,,,,,,,,,N,,,22920,,Ladbrook,,Dr,,,,,,,,No,1501+ feet,1453.0,,2064.0,,,,,,,,,,,,,,,,,,,,,,,,,,,,,,,,,,,,,,,,,,,,,,,,,,,,,,,,,,,,,,,,,,,,,,,,,,,,,,,,,,,,,,,,,,,,,,,,,,,,331,,,,delta_new
43101 Barnstead Dr,43101 Barnstead Dr,Ashburn,VA,20148,USA,"Washington-Arlington-Alexandria, DC-VA-MD-WV",38.978318,-77.511022,,ASBNVAASDS0,,Not Connected,Near Net,Commercial Building,703,723,246,,,Fiber,,FIBERLIGHT LLC,,,,,,,,,,N,,,43101,,Barnstead,,Dr,,,,,,,,No,1501+ feet,1586.0,,1552.0,,,,,,,,,,,,,,,,,,,,,,,,,,,,,,,,,,,,,,,,,,,,,,,,,,,,,,,,,,,,,,,,,,,,,,,,,,,,,,,,,,,,,,,,,,,,,,,,,,,,334,,,,delta_new
4249 Lafayette Center Dr,4249 Lafayette Center Dr,Chantilly,VA,20151,USA,"Washington-Arlington-Alexandria, DC-VA-MD-WV",38.907773,-77.475624,,CNVIVACTDS0,,Not Connected,Near Net,Commercial Building,703,222,236,,,Fiber,,FIBERLIGHT LLC,,,,,,,,,,N,,,4249,,Lafayette Center,,Dr,,,,,,,,No,1501+ feet,1582.0,,2763.0,,,,,,,,,,,,,,,,,,,,,,,,,,,,,,,,,,,,,,,,,,,,,,,,,,,,,,,,,,,,,,,,,,,,,,,,,,,,,,,,,,,,,,,,,,,,,,,,,,,,338,,,,delta_new
40956 Blossom Glade Dr,40956 Blossom Glade Dr,Aldie,VA,20105,USA,"Washington-Arlington-Alexandria, DC-VA-MD-WV",38.932751,-77.586927,,ARCLVAXARS0,,Not Connected,Near Net,Commercial Building,703,327,236,,,Fiber,,FIBERLIGHT LLC,,,,,,,,,,N,,,40956,,Blossom Glade,,Dr,,,,,,,,No,1001 - 1500 feet,1570.0,,1466.0,,,,,,,,,,,,,,,,,,,,,,,,,,,,,,,,,,,,,,,,,,,,,,,,,,,,,,,,,,,,,,,,,,,,,,,,,,,,,,,,,,,,,,,,,,,,,,,,,,,,344,,,,delta_new
43030 Elk Pl,43030 Elk Pl,Chantilly,VA,20152,USA,"Washington-Arlington-Alexandria, DC-VA-MD-WV",38.922618,-77.51278,,ARCLVAXARS0,,Not Connected,Near Net,Commercial Building,703,327,236,,,Fiber,,FIBERLIGHT LLC,,,,,,,,,,N,,,43030,,Elk,,Pl,,,,,,,,No,1501+ feet,1564.0,,2550.0,,,,,,,,,,,,,,,,,,,,,,,,,,,,,,,,,,,,,,,,,,,,,,,,,,,,,,,,,,,,,,,,,,,,,,,,,,,,,,,,,,,,,,,,,,,,,,,,,,,,346,,,,delta_new
24802 Somerby Dr,24802 Somerby Dr,Chantilly,VA,20152,USA,"Washington-Arlington-Alexandria, DC-VA-MD-WV",38.93017,-77.536953,,ARCLVAXARS0,,Not Connected,Near Net,Commercial Building,703,327,236,,,Fiber,,FIBERLIGHT LLC,,,,,,,,,,N,,,24802,,Somerby,,Dr,,,,,,,,No,1501+ feet,1560.0,,2257.0,,,,,,,,,,,,,,,,,,,,,,,,,,,,,,,,,,,,,,,,,,,,,,,,,,,,,,,,,,,,,,,,,,,,,,,,,,,,,,,,,,,,,,,,,,,,,,,,,,,,349,,,,delta_new
24704 Clock Tower Sq,24704 Clock Tower Sq,Aldie,VA,20105,USA,"Washington-Arlington-Alexandria, DC-VA-MD-WV",38.933505,-77.545236,,ARCLVAXARS0,,Not Connected,Near Net,Commercial Building,703,327,236,,,Fiber,,FIBERLIGHT LLC,,,,,,,,,,N,,,24704,,Clock Tower,,Sq,,,,,,,,No,1501+ feet,1661.0,,2458.0,,,,,,,,,,,,,,,,,,,,,,,,,,,,,,,,,,,,,,,,,,,,,,,,,,,,,,,,,,,,,,,,,,,,,,,,,,,,,,,,,,,,,,,,,,,,,,,,,,,,360,,,,delta_new
42630 Stratford Landing Dr,42630 Stratford Landing Dr,Ashburn,VA,20148,USA,"Washington-Arlington-Alexandria, DC-VA-MD-WV",38.965509,-77.526468,,ARCLVAXARS0,,Not Connected,Near Net,Commercial Building,703,327,236,,,Fiber,,FIBERLIGHT LLC,,,,,,,,,,N,,,42630,,Stratford Landing,,Dr,,,,,,,,No,1501+ feet,1660.0,,2527.0,,,,,,,,,,,,,,,,,,,,,,,,,,,,,,,,,,,,,,,,,,,,,,,,,,,,,,,,,,,,,,,,,,,,,,,,,,,,,,,,,,,,,,,,,,,,,,,,,,,,361,,,,delta_new
43925 State St,43925 State St,Ashburn,VA,20148,USA,"Washington-Arlington-Alexandria, DC-VA-MD-WV",38.99077,-77.481912,,ASBNVAASDS0,,Not Connected,Near Net,Commercial Building,703,723,246,,,Fiber,,FIBERLIGHT LLC,,,,,,,,,,N,,,43925,,State,,St,,,,,,,,No,1501+ feet,1653.0,,2381.0,,,,,,,,,,,,,,,,,,,,,,,,,,,,,,,,,,,,,,,,,,,,,,,,,,,,,,,,,,,,,,,,,,,,,,,,,,,,,,,,,,,,,,,,,,,,,,,,,,,,363,,,,delta_new
25267 Connor Ct,25267 Connor Ct,Aldie,VA,20105,USA,"Washington-Arlington-Alexandria, DC-VA-MD-WV",38.918635,-77.56561,,ARCLVAXARS0,,Not Connected,Near Net,Commercial Building,703,327,236,,,Fiber,,FIBERLIGHT LLC,,,,,,,,,,N,,,25267,,Connor,,Ct,,,,,,,,No,1501+ feet,1634.0,,2486.0,,,,,,,,,,,,,,,,,,,,,,,,,,,,,,,,,,,,,,,,,,,,,,,,,,,,,,,,,,,,,,,,,,,,,,,,,,,,,,,,,,,,,,,,,,,,,,,,,,,,369,,,,delta_new
25551 Donegal Dr,25551 Donegal Dr,Chantilly,VA,20152,USA,"Washington-Arlington-Alexandria, DC-VA-MD-WV",38.910689,-77.523643,,ARCLVAXARS0,,Not Connected,Near Net,Commercial Building,703,327,236,,,Fiber,,FIBERLIGHT LLC,,,,,,,,,,N,,,25551,,Donegal,,Dr,,,,,,,,No,1501+ feet,1624.0,,1822.0,,,,,,,,,,,,,,,,,,,,,,,,,,,,,,,,,,,,,,,,,,,,,,,,,,,,,,,,,,,,,,,,,,,,,,,,,,,,,,,,,,,,,,,,,,,,,,,,,,,,375,,,,delta_new
41575 Carriage Horse Dr,41575 Carriage Horse Dr,Aldie,VA,20105,USA,"Washington-Arlington-Alexandria, DC-VA-MD-WV",38.908229,-77.566105,,ARCLVAXARS0,,Not Connected,Near Net,Commercial Building,703,327,236,,,Fiber,,FIBERLIGHT LLC,,,,,,,,,,N,,,41575,,Carriage Horse,,Dr,,,,,,,,No,1501+ feet,1622.0,,2113.0,,,,,,,,,,,,,,,,,,,,,,,,,,,,,,,,,,,,,,,,,,,,,,,,,,,,,,,,,,,,,,,,,,,,,,,,,,,,,,,,,,,,,,,,,,,,,,,,,,,,378,,,,delta_new
43029 Demerrit St,43029 Demerrit St,Chantilly,VA,20152,USA,"Washington-Arlington-Alexandria, DC-VA-MD-WV",38.912713,-77.514879,,ARCLVAXARS0,,Not Connected,Near Net,Commercial Building,703,327,236,,,Fiber,,FIBERLIGHT LLC,,,,,,,,,,N,,,43029,,Demerrit,,St,,,,,,,,waterways - stream,1501+ feet,1615.0,,1766.0,,,,,,,,,,,,,,,,,,,,,,,,,,,,,,,,,,,,,,,,,,,,,,,,,,,,,,,,,,,,,,,,,,,,,,,,,,,,,,,,,,,,,,,,,,,,,,,,,,,,381,,,,delta_new
24764 Switchgrass Ct,24764 Switchgrass Ct,Aldie,VA,20105,USA,"Washington-Arlington-Alexandria, DC-VA-MD-WV",38.932326,-77.558869,,ARCLVAXARS0,,Not Connected,Near Net,Commercial Building,703,327,236,,,Fiber,,FIBERLIGHT LLC,,,,,,,,,,N,,,24764,,Switchgrass,,Ct,,,,,,,,No,1501+ feet,1503.0,,1560.0,,,,,,,,,,,,,,,,,,,,,,,,,,,,,,,,,,,,,,,,,,,,,,,,,,,,,,,,,,,,,,,,,,,,,,,,,,,,,,,,,,,,,,,,,,,,,,,,,,,,387,,,,delta_new
23242 Hemmingford Cir,23242 Hemmingford Cir,Sterling,VA,20166,USA,"Washington-Arlington-Alexandria, DC-VA-MD-WV",38.974027,-77.495577,,DLLSVAXARS0,,Not Connected,Near Net,Commercial Building,703,260,236,,,Fiber,,FIBERLIGHT LLC,,,,,,,,,,N,,,23242,,Hemmingford,,Cir,,,,,,,,No,1501+ feet,1495.0,,1620.0,,,,,,,,,,,,,,,,,,,,,,,,,,,,,,,,,,,,,,,,,,,,,,,,,,,,,,,,,,,,,,,,,,,,,,,,,,,,,,,,,,,,,,,,,,,,,,,,,,,,389,,,,delta_new
42069 Greenstone Dr,42069 Greenstone Dr,Aldie,VA,20105,USA,"Washington-Arlington-Alexandria, DC-VA-MD-WV",38.927183,-77.547905,,ARCLVAXARS0,,Not Connected,Near Net,Commercial Building,703,327,236,,,Fiber,,FIBERLIGHT LLC,,,,,,,,,,N,,,42069,,Greenstone,,Dr,,,,,,,,No,1501+ feet,1494.0,,1811.0,,,,,,,,,,,,,,,,,,,,,,,,,,,,,,,,,,,,,,,,,,,,,,,,,,,,,,,,,,,,,,,,,,,,,,,,,,,,,,,,,,,,,,,,,,,,,,,,,,,,390,,,,delta_new
43046 Elk Pl,43046 Elk Pl,Chantilly,VA,20152,USA,"Washington-Arlington-Alexandria, DC-VA-MD-WV",38.922349,-77.511571,,ARCLVAXARS0,,Not Connected,Near Net,Commercial Building,703,327,236,,,Fiber,,FIBERLIGHT LLC,,,,,,,,,,N,,,43046,,Elk,,Pl,,,,,,,,No,1501+ feet,1490.0,,2209.0,,,,,,,,,,,,,,,,,,,,,,,,,,,,,,,,,,,,,,,,,,,,,,,,,,,,,,,,,,,,,,,,,,,,,,,,,,,,,,,,,,,,,,,,,,,,,,,,,,,,393,,,,delta_new
42251 Heathman Pl,42251 Heathman Pl,Chantilly,VA,20152,USA,"Washington-Arlington-Alexandria, DC-VA-MD-WV",38.920195,-77.540859,,ARCLVAXARS0,,Not Connected,Near Net,Commercial Building,703,327,236,,,Fiber,,FIBERLIGHT LLC,,,,,,,,,,N,,,42251,,Heathman,,Pl,,,,,,,,No,1501+ feet,1487.0,,2510.0,,,,,,,,,,,,,,,,,,,,,,,,,,,,,,,,,,,,,,,,,,,,,,,,,,,,,,,,,,,,,,,,,,,,,,,,,,,,,,,,,,,,,,,,,,,,,,,,,,,,396,,,,delta_new
24924 Pinebrook Rd,24924 Pinebrook Rd,Chantilly,VA,20152,USA,"Washington-Arlington-Alexandria, DC-VA-MD-WV",38.93393,-77.53509,,ARCLVAXARS0,,Not Connected,Near Net,Commercial Building,703,327,236,,,Fiber,,FIBERLIGHT LLC,,,,,,,,,,N,,,24924,,Pinebrook,,Rd,,,,,,,,No,1501+ feet,1457.0,,2211.0,,,,,,,,,,,,,,,,,,,,,,,,,,,,,,,,,,,,,,,,,,,,,,,,,,,,,,,,,,,,,,,,,,,,,,,,,,,,,,,,,,,,,,,,,,,,,,,,,,,,406,,,,delta_new
23226 Hemmingford Cir,23226 Hemmingford Cir,Sterling,VA,20166,USA,"Washington-Arlington-Alexandria, DC-VA-MD-WV",38.975221,-77.495252,,DLLSVAXARS0,,Not Connected,Near Net,Commercial Building,703,260,236,,,Fiber,,FIBERLIGHT LLC,,,,,,,,,,N,,,23226,,Hemmingford,,Cir,,,,,,,,No,1501+ feet,1456.0,,2059.0,,,,,,,,,,,,,,,,,,,,,,,,,,,,,,,,,,,,,,,,,,,,,,,,,,,,,,,,,,,,,,,,,,,,,,,,,,,,,,,,,,,,,,,,,,,,,,,,,,,,408,,,,delta_new
43100 Barnstead Dr,43100 Barnstead Dr,Ashburn,VA,20148,USA,"Washington-Arlington-Alexandria, DC-VA-MD-WV",38.978909,-77.511219,,ASBNVAASDS0,,Not Connected,Near Net,Commercial Building,703,723,246,,,Fiber,,FIBERLIGHT LLC,,,,,,,,,,N,,,43100,,Barnstead,,Dr,,,,,,,,No,1501+ feet,1516.0,,1697.0,,,,,,,,,,,,,,,,,,,,,,,,,,,,,,,,,,,,,,,,,,,,,,,,,,,,,,,,,,,,,,,,,,,,,,,,,,,,,,,,,,,,,,,,,,,,,,,,,,,,436,,,,delta_new
25120 Harpenden Ter,25120 Harpenden Ter,Aldie,VA,20105,USA,"Washington-Arlington-Alexandria, DC-VA-MD-WV",38.922829,-77.563044,,ARCLVAXARS0,,Not Connected,Near Net,Commercial Building,703,327,236,,,Fiber,,FIBERLIGHT LLC,,,,,,,,,,N,,,25120,,Harpenden,,Ter,,,,,,,,No,1501+ feet,1513.0,,2329.0,,,,,,,,,,,,,,,,,,,,,,,,,,,,,,,,,,,,,,,,,,,,,,,,,,,,,,,,,,,,,,,,,,,,,,,,,,,,,,,,,,,,,,,,,,,,,,,,,,,,437,,,,delta_new
25235 Elk Lick Rd,25235 Elk Lick Rd,Chantilly,VA,20152,USA,"Washington-Arlington-Alexandria, DC-VA-MD-WV",38.919812,-77.512463,,ARCLVAXARS0,,Not Connected,Near Net,Commercial Building,703,327,236,,,Fiber,,FIBERLIGHT LLC,,,,,,,,,,N,,,25235,,Elk Lick,,Rd,,,,,,,,No,1501+ feet,2074.0,,2792.0,,,,,,,,,,,,,,,,,,,,,,,,,,,,,,,,,,,,,,,,,,,,,,,,,,,,,,,,,,,,,,,,,,,,,,,,,,,,,,,,,,,,,,,,,,,,,,,,,,,,440,,,,delta_new
43111 Center St,43111 Center St,Chantilly,VA,20152,USA,"Washington-Arlington-Alexandria, DC-VA-MD-WV",38.913113,-77.511467,,ARCLVAXARS0,,Not Connected,Near Net,Commercial Building,703,327,236,,,Fiber,,FIBERLIGHT LLC,,,,,,,,,,N,,,43111,,Center,,St,,,,,,,,waterways - stream,1501+ feet,2831.0,,2367.0,,,,,,,,,,,,,,,,,,,,,,,,,,,,,,,,,,,,,,,,,,,,,,,,,,,,,,,,,,,,,,,,,,,,,,,,,,,,,,,,,,,,,,,,,,,,,,,,,,,,442,,,,delta_new
43100 Center St,43100 Center St,Chantilly,VA,20152,USA,"Washington-Arlington-Alexandria, DC-VA-MD-WV",38.913603,-77.511471,,ARCLVAXARS0,,Not Connected,Near Net,Commercial Building,703,327,236,,,Fiber,,FIBERLIGHT LLC,,,,,,,,,,N,,,43100,,Center,,St,,,,,,,,waterways - stream,1501+ feet,2805.0,,2413.0,,,,,,,,,,,,,,,,,,,,,,,,,,,,,,,,,,,,,,,,,,,,,,,,,,,,,,,,,,,,,,,,,,,,,,,,,,,,,,,,,,,,,,,,,,,,,,,,,,,,450,,,,delta_new
25403 Vacation Pl,25403 Vacation Pl,Aldie,VA,20105,USA,"Washington-Arlington-Alexandria, DC-VA-MD-WV",38.914597,-77.553761,,ARCLVAXARS0,,Not Connected,Near Net,Commercial Building,703,327,236,,,Fiber,,FIBERLIGHT LLC,,,,,,,,,,N,,,25403,,Vacation,,Pl,,,,,,,,waterways - stream,1501+ feet,2799.0,,2984.0,,,,,,,,,,,,,,,,,,,,,,,,,,,,,,,,,,,,,,,,,,,,,,,,,,,,,,,,,,,,,,,,,,,,,,,,,,,,,,,,,,,,,,,,,,,,,,,,,,,,454,,,,delta_new
42670 Nations St,42670 Nations St,Chantilly,VA,20152,USA,"Washington-Arlington-Alexandria, DC-VA-MD-WV",38.919764,-77.526151,,ARCLVAXARS0,,Not Connected,Near Net,Commercial Building,703,327,236,,,Fiber,,FIBERLIGHT LLC,,,,,,,,,,N,,,42670,,Nations,,St,,,,,,,,No,1501+ feet,2885.0,,2547.0,,,,,,,,,,,,,,,,,,,,,,,,,,,,,,,,,,,,,,,,,,,,,,,,,,,,,,,,,,,,,,,,,,,,,,,,,,,,,,,,,,,,,,,,,,,,,,,,,,,,476,,,,delta_new
42701 Newcomer Ter,42701 Newcomer Ter,Chantilly,VA,20152,USA,"Washington-Arlington-Alexandria, DC-VA-MD-WV",38.919089,-77.526186,,ARCLVAXARS0,,Not Connected,Near Net,Commercial Building,703,327,236,,,Fiber,,FIBERLIGHT LLC,,,,,,,,,,N,,,42701,,Newcomer,,Ter,,,,,,,,No,1501+ feet,2863.0,,2628.0,,,,,,,,,,,,,,,,,,,,,,,,,,,,,,,,,,,,,,,,,,,,,,,,,,,,,,,,,,,,,,,,,,,,,,,,,,,,,,,,,,,,,,,,,,,,,,,,,,,,487,,,,delta_new
25400 S Riding Blvd,25400 S Riding Blvd,Chantilly,VA,20152,USA,"Washington-Arlington-Alexandria, DC-VA-MD-WV",38.914844,-77.511605,,ARCLVAXARS0,,Not Connected,Near Net,Commercial Building,703,327,236,,,Fiber,,FIBERLIGHT LLC,,,,,,,,,,N,,,25400,S,Riding,,Blvd,,,,,,,,waterways - stream,1501+ feet,2675.0,,2603.0,,,,,,,,,,,,,,,,,,,,,,,,,,,,,,,,,,,,,,,,,,,,,,,,,,,,,,,,,,,,,,,,,,,,,,,,,,,,,,,,,,,,,,,,,,,,,,,,,,,,498,,,,delta_new
25378 Vacation Pl,25378 Vacation Pl,Aldie,VA,20105,USA,"Washington-Arlington-Alexandria, DC-VA-MD-WV",38.915317,-77.553464,,ARCLVAXARS0,,Not Connected,Near Net,Commercial Building,703,327,236,,,Fiber,,FIBERLIGHT LLC,,,,,,,,,,N,,,25378,,Vacation,,Pl,,,,,,,,waterways - stream,1501+ feet,2669.0,,2691.0,,,,,,,,,,,,,,,,,,,,,,,,,,,,,,,,,,,,,,,,,,,,,,,,,,,,,,,,,,,,,,,,,,,,,,,,,,,,,,,,,,,,,,,,,,,,,,,,,,,,501,,,,delta_new
25483 Gover Dr,25483 Gover Dr,Chantilly,VA,20152,USA,"Washington-Arlington-Alexandria, DC-VA-MD-WV",38.912492,-77.51202,,ARCLVAXARS0,,Not Connected,Near Net,Commercial Building,703,327,236,,,Fiber,,FIBERLIGHT LLC,,,,,,,,,,N,,,25483,,Gover,,Dr,,,,,,,,waterways - stream,1501+ feet,2657.0,,2557.0,,,,,,,,,,,,,,,,,,,,,,,,,,,,,,,,,,,,,,,,,,,,,,,,,,,,,,,,,,,,,,,,,,,,,,,,,,,,,,,,,,,,,,,,,,,,,,,,,,,,506,,,,delta_new
41660 Revival Dr,41660 Revival Dr,Ashburn,VA,20148,USA,"Washington-Arlington-Alexandria, DC-VA-MD-WV",38.954432,-77.560184,,ARCLVAXARS0,,Not Connected,Near Net,Commercial Building,703,327,236,,,Fiber,,FIBERLIGHT LLC,,,,,,,,,,N,,,41660,,Revival,,Dr,,,,,,,,No,1501+ feet,2651.0,,2943.0,,,,,,,,,,,,,,,,,,,,,,,,,,,,,,,,,,,,,,,,,,,,,,,,,,,,,,,,,,,,,,,,,,,,,,,,,,,,,,,,,,,,,,,,,,,,,,,,,,,,510,,,,delta_new
42687 Latrobe St,42687 Latrobe St,Chantilly,VA,20152,USA,"Washington-Arlington-Alexandria, DC-VA-MD-WV",38.91276,-77.526625,,ARCLVAXARS0,,Not Connected,Near Net,Commercial Building,703,327,236,,,Fiber,,FIBERLIGHT LLC,,,,,,,,,,N,,,42687,,Latrobe,,St,,,,,,,,No,1501+ feet,2646.0,,2786.0,,,,,,,,,,,,,,,,,,,,,,,,,,,,,,,,,,,,,,,,,,,,,,,,,,,,,,,,,,,,,,,,,,,,,,,,,,,,,,,,,,,,,,,,,,,,,,,,,,,,513,,,,delta_new
25755 Lennox Hale Dr,25755 Lennox Hale Dr,Aldie,VA,20105,USA,"Washington-Arlington-Alexandria, DC-VA-MD-WV",38.906796,-77.551985,,ARCLVAXARS0,,Not Connected,Near Net,Commercial Building,703,327,236,,,Fiber,,FIBERLIGHT LLC,,,,,,,,,,N,,,25755,,Lennox Hale,,Dr,,,,,,,,No,1501+ feet,2629.0,,2304.0,,,,,,,,,,,,,,,,,,,,,,,,,,,,,,,,,,,,,,,,,,,,,,,,,,,,,,,,,,,,,,,,,,,,,,,,,,,,,,,,,,,,,,,,,,,,,,,,,,,,517,,,,delta_new
25469 Carrington Dr,25469 Carrington Dr,Chantilly,VA,20152,USA,"Washington-Arlington-Alexandria, DC-VA-MD-WV",38.916169,-77.526135,,ARCLVAXARS0,,Not Connected,Near Net,Commercial Building,703,327,236,,,Fiber,,FIBERLIGHT LLC,,,,,,,,,,N,,,25469,,Carrington,,Dr,,,,,,,,No,1501+ feet,2628.0,,2775.0,,,,,,,,,,,,,,,,,,,,,,,,,,,,,,,,,,,,,,,,,,,,,,,,,,,,,,,,,,,,,,,,,,,,,,,,,,,,,,,,,,,,,,,,,,,,,,,,,,,,518,,,,delta_new
42680 Rolling Rock Sq,42680 Rolling Rock Sq,Chantilly,VA,20152,USA,"Washington-Arlington-Alexandria, DC-VA-MD-WV",38.913926,-77.526834,,ARCLVAXARS0,,Not Connected,Near Net,Commercial Building,703,327,236,,,Fiber,,FIBERLIGHT LLC,,,,,,,,,,N,,,42680,,Rolling Rock,,Sq,,,,,,,,No,1501+ feet,2745.0,,2768.0,,,,,,,,,,,,,,,,,,,,,,,,,,,,,,,,,,,,,,,,,,,,,,,,,,,,,,,,,,,,,,,,,,,,,,,,,,,,,,,,,,,,,,,,,,,,,,,,,,,,530,,,,delta_new
25721 Hayden Prairie Ct,25721 Hayden Prairie Ct,Aldie,VA,20105,USA,"Washington-Arlington-Alexandria, DC-VA-MD-WV",38.906339,-77.552123,,ARCLVAXARS0,,Not Connected,Near Net,Commercial Building,703,327,236,,,Fiber,,FIBERLIGHT LLC,,,,,,,,,,N,,,25721,,Hayden Prairie,,Ct,,,,,,,,No,1501+ feet,2689.0,,2318.0,,,,,,,,,,,,,,,,,,,,,,,,,,,,,,,,,,,,,,,,,,,,,,,,,,,,,,,,,,,,,,,,,,,,,,,,,,,,,,,,,,,,,,,,,,,,,,,,,,,,537,,,,delta_new
21863 Engleside Pl,21863 Engleside Pl,Ashburn,VA,20148,USA,"Washington-Arlington-Alexandria, DC-VA-MD-WV",39.011613,-77.520263,,ASBNVAASDS0,,Not Connected,Near Net,Commercial Building,703,723,246,,,Fiber,,FIBERLIGHT LLC,,,,,,,,,,N,,,21863,,Engleside,,Pl,,,,,,,,waterways - ditch,1501+ feet,2619.0,,2675.0,,,,,,,,,,,,,,,,,,,,,,,,,,,,,,,,,,,,,,,,,,,,,,,,,,,,,,,,,,,,,,,,,,,,,,,,,,,,,,,,,,,,,,,,,,,,,,,,,,,,551,,,,delta_new
42646 Harris St,42646 Harris St,Chantilly,VA,20152,USA,"Washington-Arlington-Alexandria, DC-VA-MD-WV",38.913939,-77.527677,,ARCLVAXARS0,,Not Connected,Near Net,Commercial Building,703,327,236,,,Fiber,,FIBERLIGHT LLC,,,,,,,,,,N,,,42646,,Harris,,St,,,,,,,,No,1501+ feet,3052.0,,2882.0,,,,,,,,,,,,,,,,,,,,,,,,,,,,,,,,,,,,,,,,,,,,,,,,,,,,,,,,,,,,,,,,,,,,,,,,,,,,,,,,,,,,,,,,,,,,,,,,,,,,562,,,,delta_new
25382 Kettle Ln,25382 Kettle Ln,Chantilly,VA,20152,USA,"Washington-Arlington-Alexandria, DC-VA-MD-WV",38.914834,-77.527668,,ARCLVAXARS0,,Not Connected,Near Net,Commercial Building,703,327,236,,,Fiber,,FIBERLIGHT LLC,,,,,,,,,,N,,,25382,,Kettle,,Ln,,,,,,,,No,1501+ feet,3098.0,,2581.0,,,,,,,,,,,,,,,,,,,,,,,,,,,,,,,,,,,,,,,,,,,,,,,,,,,,,,,,,,,,,,,,,,,,,,,,,,,,,,,,,,,,,,,,,,,,,,,,,,,,600,,,,delta_new
23097 Backcountry Ct,23097 Backcountry Ct,Ashburn,VA,20148,USA,"Washington-Arlington-Alexandria, DC-VA-MD-WV",38.978583,-77.57185,,ARCLVAXARS0,,Not Connected,Near Net,Commercial Building,703,327,236,,,Fiber,,FIBERLIGHT LLC,,,,,,,,,,N,,,23097,,Backcountry,,Ct,,,,,,,,No,1501+ feet,2931.0,,2902.0,,,,,,,,,,,,,,,,,,,,,,,,,,,,,,,,,,,,,,,,,,,,,,,,,,,,,,,,,,,,,,,,,,,,,,,,,,,,,,,,,,,,,,,,,,,,,,,,,,,,626,,,,delta_new
25459 Newcastle Dr,25459 Newcastle Dr,Chantilly,VA,20152,USA,"Washington-Arlington-Alexandria, DC-VA-MD-WV",38.913069,-77.527338,,ARCLVAXARS0,,Not Connected,Near Net,Commercial Building,703,327,236,,,Fiber,,FIBERLIGHT LLC,,,,,,,,,,N,,,25459,,Newcastle,,Dr,,,,,,,,No,1501+ feet,2910.0,,2707.0,,,,,,,,,,,,,,,,,,,,,,,,,,,,,,,,,,,,,,,,,,,,,,,,,,,,,,,,,,,,,,,,,,,,,,,,,,,,,,,,,,,,,,,,,,,,,,,,,,,,631,,,,delta_new
43483 Freeport Pl,43483 Freeport Pl,Sterling,VA,20166,USA,"Washington-Arlington-Alexandria, DC-VA-MD-WV",38.97376,-77.50046,,DLLSVAXARS0,,Not Connected,Near Net,Commercial Building,703,260,236,,,Fiber,,FIBERLIGHT LLC,,,,,,,,,,N,,,43483,,Freeport,,Pl,,,,,,,,No,1501+ feet,3018.0,,2913.0,,,,,,,,,,,,,,,,,,,,,,,,,,,,,,,,,,,,,,,,,,,,,,,,,,,,,,,,,,,,,,,,,,,,,,,,,,,,,,,,,,,,,,,,,,,,,,,,,,,,639,,,,delta_new
24706 Kings Canyon Sq,24706 Kings Canyon Sq,Aldie,VA,20105,USA,"Washington-Arlington-Alexandria, DC-VA-MD-WV",38.934135,-77.547282,,ARCLVAXARS0,,Not Connected,Near Net,Commercial Building,703,327,236,,,Fiber,,FIBERLIGHT LLC,,,,,,,,,,N,,,24706,,Kings Canyon,,Sq,,,,,,,,No,1501+ feet,2236.0,,2411.0,,,,,,,,,,,,,,,,,,,,,,,,,,,,,,,,,,,,,,,,,,,,,,,,,,,,,,,,,,,,,,,,,,,,,,,,,,,,,,,,,,,,,,,,,,,,,,,,,,,,667,,,,delta_new
42730 Freedom St,42730 Freedom St,Chantilly,VA,20152,USA,"Washington-Arlington-Alexandria, DC-VA-MD-WV",38.91238,-77.525486,,ARCLVAXARS0,,Not Connected,Near Net,Commercial Building,703,327,236,,,Fiber,,FIBERLIGHT LLC,,,,,,,,,,N,,,42730,,Freedom,,St,,,,,,,,No,1501+ feet,2231.0,,1949.0,,,,,,,,,,,,,,,,,,,,,,,,,,,,,,,,,,,,,,,,,,,,,,,,,,,,,,,,,,,,,,,,,,,,,,,,,,,,,,,,,,,,,,,,,,,,,,,,,,,,669,,,,delta_new
25254 McIntyre Sq,25254 McIntyre Sq,Chantilly,VA,20152,USA,"Washington-Arlington-Alexandria, DC-VA-MD-WV",38.915166,-77.525153,,ARCLVAXARS0,,Not Connected,Near Net,Commercial Building,703,327,236,,,Fiber,,FIBERLIGHT LLC,,,,,,,,,,N,,,25254,,McIntyre,,Sq,,,,,,,,No,1501+ feet,2222.0,,2032.0,,,,,,,,,,,,,,,,,,,,,,,,,,,,,,,,,,,,,,,,,,,,,,,,,,,,,,,,,,,,,,,,,,,,,,,,,,,,,,,,,,,,,,,,,,,,,,,,,,,,674,,,,delta_new
43514 Freeport Pl,43514 Freeport Pl,Sterling,VA,20166,USA,"Washington-Arlington-Alexandria, DC-VA-MD-WV",38.972087,-77.498186,,DLLSVAXARS0,,Not Connected,Near Net,Commercial Building,703,260,236,,,Fiber,,FIBERLIGHT LLC,,,,,,,,,,N,,,43514,,Freeport,,Pl,,,,,,,,No,1501+ feet,2238.0,,2168.0,,,,,,,,,,,,,,,,,,,,,,,,,,,,,,,,,,,,,,,,,,,,,,,,,,,,,,,,,,,,,,,,,,,,,,,,,,,,,,,,,,,,,,,,,,,,,,,,,,,,677,,,,delta_new
42340 Astors Beachwood Ct,42340 Astors Beachwood Ct,Chantilly,VA,20152,USA,"Washington-Arlington-Alexandria, DC-VA-MD-WV",38.924425,-77.538116,,ARCLVAXARS0,,Not Connected,Near Net,Commercial Building,703,327,236,,,Fiber,,FIBERLIGHT LLC,,,,,,,,,,N,,,42340,,Astors Beachwood,,Ct,,,,,,,,No,1501+ feet,2210.0,,2947.0,,,,,,,,,,,,,,,,,,,,,,,,,,,,,,,,,,,,,,,,,,,,,,,,,,,,,,,,,,,,,,,,,,,,,,,,,,,,,,,,,,,,,,,,,,,,,,,,,,,,680,,,,delta_new
22670 Belmont Ridge Rd,22670 Belmont Ridge Rd,Ashburn,VA,20148,USA,"Washington-Arlington-Alexandria, DC-VA-MD-WV",38.99045,-77.5278,,ASBNVAASDS0,,Not Connected,Near Net,Commercial Building,703,723,246,,,Fiber,,FIBERLIGHT LLC,,,,,,,,,,N,,,22670,,Belmont Ridge,,Rd,,,,,,,,No,1501+ feet,2195.0,,2964.0,,,,,,,,,,,,,,,,,,,,,,,,,,,,,,,,,,,,,,,,,,,,,,,,,,,,,,,,,,,,,,,,,,,,,,,,,,,,,,,,,,,,,,,,,,,,,,,,,,,,685,,,,delta_new
22644 Belmont Ridge Rd,22644 Belmont Ridge Rd,Ashburn,VA,20148,USA,"Washington-Arlington-Alexandria, DC-VA-MD-WV",38.99045,-77.5278,,ASBNVAASDS0,,Not Connected,Near Net,Commercial Building,703,723,246,,,Fiber,,FIBERLIGHT LLC,,,,,,,,,,N,,,22644,,Belmont Ridge,,Rd,,,,,,,,No,1501+ feet,2195.0,,2964.0,,,,,,,,,,,,,,,,,,,,,,,,,,,,,,,,,,,,,,,,,,,,,,,,,,,,,,,,,,,,,,,,,,,,,,,,,,,,,,,,,,,,,,,,,,,,,,,,,,,,686,,,,delta_new
41737 McMonagle Sq,41737 McMonagle Sq,Aldie,VA,20105,USA,"Washington-Arlington-Alexandria, DC-VA-MD-WV",38.924107,-77.559864,,ARCLVAXARS0,,Not Connected,Near Net,Commercial Building,703,327,236,,,Fiber,,FIBERLIGHT LLC,,,,,,,,,,N,,,41737,,McMonagle,,Sq,,,,,,,,No,1501+ feet,2190.0,,2475.0,,,,,,,,,,,,,,,,,,,,,,,,,,,,,,,,,,,,,,,,,,,,,,,,,,,,,,,,,,,,,,,,,,,,,,,,,,,,,,,,,,,,,,,,,,,,,,,,,,,,691,,,,delta_new
42354 Ponderosa Dr,42354 Ponderosa Dr,Chantilly,VA,20152,USA,"Washington-Arlington-Alexandria, DC-VA-MD-WV",38.925544,-77.537368,,ARCLVAXARS0,,Not Connected,Near Net,Commercial Building,703,327,236,,,Fiber,,FIBERLIGHT LLC,,,,,,,,,,N,,,42354,,Ponderosa,,Dr,,,,,,,,No,1501+ feet,2304.0,,2701.0,,,,,,,,,,,,,,,,,,,,,,,,,,,,,,,,,,,,,,,,,,,,,,,,,,,,,,,,,,,,,,,,,,,,,,,,,,,,,,,,,,,,,,,,,,,,,,,,,,,,696,,,,delta_new
25300 Lake Mist Sq,25300 Lake Mist Sq,Chantilly,VA,20152,USA,"Washington-Arlington-Alexandria, DC-VA-MD-WV",38.917631,-77.511926,,ARCLVAXARS0,,Not Connected,Near Net,Commercial Building,703,327,236,,,Fiber,,FIBERLIGHT LLC,,,,,,,,,,N,,,25300,,Lake Mist,,Sq,,,,,,,,No,1501+ feet,2302.0,,2398.0,,,,,,,,,,,,,,,,,,,,,,,,,,,,,,,,,,,,,,,,,,,,,,,,,,,,,,,,,,,,,,,,,,,,,,,,,,,,,,,,,,,,,,,,,,,,,,,,,,,,698,,,,delta_new
25479 Flynn Ln,25479 Flynn Ln,Chantilly,VA,20152,USA,"Washington-Arlington-Alexandria, DC-VA-MD-WV",38.91254,-77.513084,,ARCLVAXARS0,,Not Connected,Near Net,Commercial Building,703,327,236,,,Fiber,,FIBERLIGHT LLC,,,,,,,,,,N,,,25479,,Flynn,,Ln,,,,,,,,waterways - stream,1501+ feet,2272.0,,2289.0,,,,,,,,,,,,,,,,,,,,,,,,,,,,,,,,,,,,,,,,,,,,,,,,,,,,,,,,,,,,,,,,,,,,,,,,,,,,,,,,,,,,,,,,,,,,,,,,,,,,706,,,,delta_new
25487 Flynn Ln,25487 Flynn Ln,Chantilly,VA,20152,USA,"Washington-Arlington-Alexandria, DC-VA-MD-WV",38.912325,-77.513115,,ARCLVAXARS0,,Not Connected,Near Net,Commercial Building,703,327,236,,,Fiber,,FIBERLIGHT LLC,,,,,,,,,,N,,,25487,,Flynn,,Ln,,,,,,,,waterways - stream,1501+ feet,2253.0,,2528.0,,,,,,,,,,,,,,,,,,,,,,,,,,,,,,,,,,,,,,,,,,,,,,,,,,,,,,,,,,,,,,,,,,,,,,,,,,,,,,,,,,,,,,,,,,,,,,,,,,,,711,,,,delta_new
42093 Autumn Rain Cir,42093 Autumn Rain Cir,Ashburn,VA,20148,USA,"Washington-Arlington-Alexandria, DC-VA-MD-WV",38.968613,-77.547452,,ARCLVAXARS0,,Not Connected,Near Net,Commercial Building,703,327,236,,,Fiber,,FIBERLIGHT LLC,,,,,,,,,,N,,,42093,,Autumn Rain,,Cir,,,,,,,,No,1501+ feet,2246.0,,2809.0,,,,,,,,,,,,,,,,,,,,,,,,,,,,,,,,,,,,,,,,,,,,,,,,,,,,,,,,,,,,,,,,,,,,,,,,,,,,,,,,,,,,,,,,,,,,,,,,,,,,716,,,,delta_new
43787 Beaver Meadow Rd,43787 Beaver Meadow Rd,Sterling,VA,20166,USA,"Washington-Arlington-Alexandria, DC-VA-MD-WV",38.967306,-77.48704,,DLLSVAXARS0,,Not Connected,Near Net,Commercial Building,703,260,236,,,Fiber,,FIBERLIGHT LLC,,,,,,,,,,N,,,43787,,Beaver Meadow,,Rd,,,,,,,,No,1501+ feet,2184.0,,2474.0,,,,,,,,,,,,,,,,,,,,,,,,,,,,,,,,,,,,,,,,,,,,,,,,,,,,,,,,,,,,,,,,,,,,,,,,,,,,,,,,,,,,,,,,,,,,,,,,,,,,720,,,,delta_new
41623 Revival Dr,41623 Revival Dr,Ashburn,VA,20148,USA,"Washington-Arlington-Alexandria, DC-VA-MD-WV",38.95233,-77.561176,,ARCLVAXARS0,,Not Connected,Near Net,Commercial Building,703,327,236,,,Fiber,,FIBERLIGHT LLC,,,,,,,,,,N,,,41623,,Revival,,Dr,,,,,,,,No,1501+ feet,2125.0,,2086.0,,,,,,,,,,,,,,,,,,,,,,,,,,,,,,,,,,,,,,,,,,,,,,,,,,,,,,,,,,,,,,,,,,,,,,,,,,,,,,,,,,,,,,,,,,,,,,,,,,,,722,,,,delta_new
43518 Freeport Pl,43518 Freeport Pl,Sterling,VA,20166,USA,"Washington-Arlington-Alexandria, DC-VA-MD-WV",38.971852,-77.497957,,DLLSVAXARS0,,Not Connected,Near Net,Commercial Building,703,260,236,,,Fiber,,FIBERLIGHT LLC,,,,,,,,,,N,,,43518,,Freeport,,Pl,,,,,,,,No,1501+ feet,2125.0,,2050.0,,,,,,,,,,,,,,,,,,,,,,,,,,,,,,,,,,,,,,,,,,,,,,,,,,,,,,,,,,,,,,,,,,,,,,,,,,,,,,,,,,,,,,,,,,,,,,,,,,,,723,,,,delta_new
24701 Geyser Peaks Sq,24701 Geyser Peaks Sq,Aldie,VA,20105,USA,"Washington-Arlington-Alexandria, DC-VA-MD-WV",38.934266,-77.546776,,ARCLVAXARS0,,Not Connected,Near Net,Commercial Building,703,327,236,,,Fiber,,FIBERLIGHT LLC,,,,,,,,,,N,,,24701,,Geyser Peaks,,Sq,,,,,,,,No,1501+ feet,2123.0,,2645.0,,,,,,,,,,,,,,,,,,,,,,,,,,,,,,,,,,,,,,,,,,,,,,,,,,,,,,,,,,,,,,,,,,,,,,,,,,,,,,,,,,,,,,,,,,,,,,,,,,,,725,,,,delta_new
41757 McMonagle Sq,41757 McMonagle Sq,Aldie,VA,20105,USA,"Washington-Arlington-Alexandria, DC-VA-MD-WV",38.92457,-77.559758,,ARCLVAXARS0,,Not Connected,Near Net,Commercial Building,703,327,236,,,Fiber,,FIBERLIGHT LLC,,,,,,,,,,N,,,41757,,McMonagle,,Sq,,,,,,,,No,1501+ feet,2115.0,,2302.0,,,,,,,,,,,,,,,,,,,,,,,,,,,,,,,,,,,,,,,,,,,,,,,,,,,,,,,,,,,,,,,,,,,,,,,,,,,,,,,,,,,,,,,,,,,,,,,,,,,,728,,,,delta_new
25340 Lake Mist Sq,25340 Lake Mist Sq,Chantilly,VA,20152,USA,"Washington-Arlington-Alexandria, DC-VA-MD-WV",38.91748,-77.512487,,ARCLVAXARS0,,Not Connected,Near Net,Commercial Building,703,327,236,,,Fiber,,FIBERLIGHT LLC,,,,,,,,,,N,,,25340,,Lake Mist,,Sq,,,,,,,,No,1501+ feet,2109.0,,2401.0,,,,,,,,,,,,,,,,,,,,,,,,,,,,,,,,,,,,,,,,,,,,,,,,,,,,,,,,,,,,,,,,,,,,,,,,,,,,,,,,,,,,,,,,,,,,,,,,,,,,731,,,,delta_new
43060 Francis Sq,43060 Francis Sq,Chantilly,VA,20152,USA,"Washington-Arlington-Alexandria, DC-VA-MD-WV",38.91154,-77.513434,,ARCLVAXARS0,,Not Connected,Near Net,Commercial Building,703,327,236,,,Fiber,,FIBERLIGHT LLC,,,,,,,,,,N,,,43060,,Francis,,Sq,,,,,,,,waterways - stream,1501+ feet,2109.0,,2628.0,,,,,,,,,,,,,,,,,,,,,,,,,,,,,,,,,,,,,,,,,,,,,,,,,,,,,,,,,,,,,,,,,,,,,,,,,,,,,,,,,,,,,,,,,,,,,,,,,,,,732,,,,delta_new
25662 Cabin Point Ct,25662 Cabin Point Ct,Chantilly,VA,20152,USA,"Washington-Arlington-Alexandria, DC-VA-MD-WV",38.90711,-77.477701,,ARCLVAXARS0,,Not Connected,Near Net,Commercial Building,703,327,236,,,Fiber,,FIBERLIGHT LLC,,,,,,,,,,N,,,25662,,Cabin Point,,Ct,,,,,,,,No,1501+ feet,2086.0,,2527.0,,,,,,,,,,,,,,,,,,,,,,,,,,,,,,,,,,,,,,,,,,,,,,,,,,,,,,,,,,,,,,,,,,,,,,,,,,,,,,,,,,,,,,,,,,,,,,,,,,,,741,,,,delta_new
25207 Elk Lick Rd,25207 Elk Lick Rd,Chantilly,VA,20152,USA,"Washington-Arlington-Alexandria, DC-VA-MD-WV",38.92045,-77.511952,,ARCLVAXARS0,,Not Connected,Near Net,Commercial Building,703,327,236,,,Fiber,,FIBERLIGHT LLC,,,,,,,,,,N,,,25207,,Elk Lick,,Rd,,,,,,,,No,1501+ feet,2183.0,,2413.0,,,,,,,,,,,,,,,,,,,,,,,,,,,,,,,,,,,,,,,,,,,,,,,,,,,,,,,,,,,,,,,,,,,,,,,,,,,,,,,,,,,,,,,,,,,,,,,,,,,,745,,,,delta_new
43837 Tattinger Ter,43837 Tattinger Ter,Ashburn,VA,20148,USA,"Washington-Arlington-Alexandria, DC-VA-MD-WV",38.98864,-77.486573,,ASBNVAASDS0,,Not Connected,Near Net,Commercial Building,703,723,246,,,Fiber,,FIBERLIGHT LLC,,,,,,,,,,N,,,43837,,Tattinger,,Ter,,,,,,,,No,1501+ feet,2134.0,,2979.0,,,,,,,,,,,,,,,,,,,,,,,,,,,,,,,,,,,,,,,,,,,,,,,,,,,,,,,,,,,,,,,,,,,,,,,,,,,,,,,,,,,,,,,,,,,,,,,,,,,,747,,,,delta_new
41596 Bostonian Pl,41596 Bostonian Pl,Aldie,VA,20105,USA,"Washington-Arlington-Alexandria, DC-VA-MD-WV",38.915729,-77.564634,,ARCLVAXARS0,,Not Connected,Near Net,Commercial Building,703,327,236,,,Fiber,,FIBERLIGHT LLC,,,,,,,,,,N,,,41596,,Bostonian,,Pl,,,,,,,,No,1501+ feet,2170.0,,2622.0,,,,,,,,,,,,,,,,,,,,,,,,,,,,,,,,,,,,,,,,,,,,,,,,,,,,,,,,,,,,,,,,,,,,,,,,,,,,,,,,,,,,,,,,,,,,,,,,,,,,750,,,,delta_new
25476 Freda Ln,25476 Freda Ln,Chantilly,VA,20152,USA,"Washington-Arlington-Alexandria, DC-VA-MD-WV",38.912643,-77.513392,,ARCLVAXARS0,,Not Connected,Near Net,Commercial Building,703,327,236,,,Fiber,,FIBERLIGHT LLC,,,,,,,,,,N,,,25476,,Freda,,Ln,,,,,,,,waterways - stream,1501+ feet,2156.0,,2145.0,,,,,,,,,,,,,,,,,,,,,,,,,,,,,,,,,,,,,,,,,,,,,,,,,,,,,,,,,,,,,,,,,,,,,,,,,,,,,,,,,,,,,,,,,,,,,,,,,,,,753,,,,delta_new
25242 McIntyre Sq,25242 McIntyre Sq,Chantilly,VA,20152,USA,"Washington-Arlington-Alexandria, DC-VA-MD-WV",38.914756,-77.525029,,ARCLVAXARS0,,Not Connected,Near Net,Commercial Building,703,327,236,,,Fiber,,FIBERLIGHT LLC,,,,,,,,,,N,,,25242,,McIntyre,,Sq,,,,,,,,No,1501+ feet,2156.0,,1829.0,,,,,,,,,,,,,,,,,,,,,,,,,,,,,,,,,,,,,,,,,,,,,,,,,,,,,,,,,,,,,,,,,,,,,,,,,,,,,,,,,,,,,,,,,,,,,,,,,,,,754,,,,delta_new
25478 Freda Ln,25478 Freda Ln,Chantilly,VA,20152,USA,"Washington-Arlington-Alexandria, DC-VA-MD-WV",38.912581,-77.513404,,ARCLVAXARS0,,Not Connected,Near Net,Commercial Building,703,327,236,,,Fiber,,FIBERLIGHT LLC,,,,,,,,,,N,,,25478,,Freda,,Ln,,,,,,,,waterways - stream,1501+ feet,2155.0,,2189.0,,,,,,,,,,,,,,,,,,,,,,,,,,,,,,,,,,,,,,,,,,,,,,,,,,,,,,,,,,,,,,,,,,,,,,,,,,,,,,,,,,,,,,,,,,,,,,,,,,,,756,,,,delta_new
40747 Lenah Run Cir,40747 Lenah Run Cir,Aldie,VA,20105,USA,"Washington-Arlington-Alexandria, DC-VA-MD-WV",38.951453,-77.587117,,ARCLVAXARS0,,Not Connected,Near Net,Commercial Building,703,327,236,,,Fiber,,FIBERLIGHT LLC,,,,,,,,,,N,,,40747,,Lenah Run,,Cir,,,,,,,,No,1501+ feet,2136.0,,2426.0,,,,,,,,,,,,,,,,,,,,,,,,,,,,,,,,,,,,,,,,,,,,,,,,,,,,,,,,,,,,,,,,,,,,,,,,,,,,,,,,,,,,,,,,,,,,,,,,,,,,770,,,,delta_new
24646 Siltstone Sq,24646 Siltstone Sq,Aldie,VA,20105,USA,"Washington-Arlington-Alexandria, DC-VA-MD-WV",38.935215,-77.54924,,ARCLVAXARS0,,Not Connected,Near Net,Commercial Building,703,327,236,,,Fiber,,FIBERLIGHT LLC,,,,,,,,,,N,,,24646,,Siltstone,,Sq,,,,,,,,No,1501+ feet,2135.0,,2343.0,,,,,,,,,,,,,,,,,,,,,,,,,,,,,,,,,,,,,,,,,,,,,,,,,,,,,,,,,,,,,,,,,,,,,,,,,,,,,,,,,,,,,,,,,,,,,,,,,,,,771,,,,delta_new
42696 Rolling Rock Sq,42696 Rolling Rock Sq,Chantilly,VA,20152,USA,"Washington-Arlington-Alexandria, DC-VA-MD-WV",38.913908,-77.526188,,ARCLVAXARS0,,Not Connected,Near Net,Commercial Building,703,327,236,,,Fiber,,FIBERLIGHT LLC,,,,,,,,,,N,,,42696,,Rolling Rock,,Sq,,,,,,,,No,1501+ feet,2510.0,,2952.0,,,,,,,,,,,,,,,,,,,,,,,,,,,,,,,,,,,,,,,,,,,,,,,,,,,,,,,,,,,,,,,,,,,,,,,,,,,,,,,,,,,,,,,,,,,,,,,,,,,,777,,,,delta_new
42714 Freedom St,42714 Freedom St,Chantilly,VA,20152,USA,"Washington-Arlington-Alexandria, DC-VA-MD-WV",38.912391,-77.526249,,ARCLVAXARS0,,Not Connected,Near Net,Commercial Building,703,327,236,,,Fiber,,FIBERLIGHT LLC,,,,,,,,,,N,,,42714,,Freedom,,St,,,,,,,,No,1501+ feet,2509.0,,2161.0,,,,,,,,,,,,,,,,,,,,,,,,,,,,,,,,,,,,,,,,,,,,,,,,,,,,,,,,,,,,,,,,,,,,,,,,,,,,,,,,,,,,,,,,,,,,,,,,,,,,778,,,,delta_new
40460 Lenah Run Cir,40460 Lenah Run Cir,Aldie,VA,20105,USA,"Washington-Arlington-Alexandria, DC-VA-MD-WV",38.947494,-77.590856,,ARCLVAXARS0,,Not Connected,Near Net,Commercial Building,703,327,236,,,Fiber,,FIBERLIGHT LLC,,,,,,,,,,N,,,40460,,Lenah Run,,Cir,,,,,,,,No,1501+ feet,2504.0,,2744.0,,,,,,,,,,,,,,,,,,,,,,,,,,,,,,,,,,,,,,,,,,,,,,,,,,,,,,,,,,,,,,,,,,,,,,,,,,,,,,,,,,,,,,,,,,,,,,,,,,,,784,,,,delta_new
43114 Watercrest Sq,43114 Watercrest Sq,Chantilly,VA,20152,USA,"Washington-Arlington-Alexandria, DC-VA-MD-WV",38.917476,-77.511425,,ARCLVAXARS0,,Not Connected,Near Net,Commercial Building,703,327,236,,,Fiber,,FIBERLIGHT LLC,,,,,,,,,,N,,,43114,,Watercrest,,Sq,,,,,,,,No,1501+ feet,2492.0,,2480.0,,,,,,,,,,,,,,,,,,,,,,,,,,,,,,,,,,,,,,,,,,,,,,,,,,,,,,,,,,,,,,,,,,,,,,,,,,,,,,,,,,,,,,,,,,,,,,,,,,,,785,,,,delta_new
21819 Inglewood Ct,21819 Inglewood Ct,Ashburn,VA,20148,USA,"Washington-Arlington-Alexandria, DC-VA-MD-WV",39.013475,-77.517613,,ASBNVAASDS0,,Not Connected,Near Net,Commercial Building,703,723,246,,,Fiber,,FIBERLIGHT LLC,,,,,,,,,,N,,,21819,,Inglewood,,Ct,,,,,,,,waterways - ditch,1501+ feet,2467.0,,2785.0,,,,,,,,,,,,,,,,,,,,,,,,,,,,,,,,,,,,,,,,,,,,,,,,,,,,,,,,,,,,,,,,,,,,,,,,,,,,,,,,,,,,,,,,,,,,,,,,,,,,791,,,,delta_new
42006 Pepperbush Pl,42006 Pepperbush Pl,Aldie,VA,20105,USA,"Washington-Arlington-Alexandria, DC-VA-MD-WV",38.929957,-77.549696,,ARCLVAXARS0,,Not Connected,Near Net,Commercial Building,703,327,236,,,Fiber,,FIBERLIGHT LLC,,,,,,,,,,N,,,42006,,Pepperbush,,Pl,,,,,,,,No,1501+ feet,2449.0,,2656.0,,,,,,,,,,,,,,,,,,,,,,,,,,,,,,,,,,,,,,,,,,,,,,,,,,,,,,,,,,,,,,,,,,,,,,,,,,,,,,,,,,,,,,,,,,,,,,,,,,,,799,,,,delta_new
25240 Lyon Ter,25240 Lyon Ter,Chantilly,VA,20152,USA,"Washington-Arlington-Alexandria, DC-VA-MD-WV",38.919375,-77.525335,,ARCLVAXARS0,,Not Connected,Near Net,Commercial Building,703,327,236,,,Fiber,,FIBERLIGHT LLC,,,,,,,,,,N,,,25240,,Lyon,,Ter,,,,,,,,No,1501+ feet,2604.0,,2482.0,,,,,,,,,,,,,,,,,,,,,,,,,,,,,,,,,,,,,,,,,,,,,,,,,,,,,,,,,,,,,,,,,,,,,,,,,,,,,,,,,,,,,,,,,,,,,,,,,,,,805,,,,delta_new
43507 Freeport Pl,43507 Freeport Pl,Sterling,VA,20166,USA,"Washington-Arlington-Alexandria, DC-VA-MD-WV",38.972145,-77.499237,,DLLSVAXARS0,,Not Connected,Near Net,Commercial Building,703,260,236,,,Fiber,,FIBERLIGHT LLC,,,,,,,,,,N,,,43507,,Freeport,,Pl,,,,,,,,No,1501+ feet,2566.0,,2402.0,,,,,,,,,,,,,,,,,,,,,,,,,,,,,,,,,,,,,,,,,,,,,,,,,,,,,,,,,,,,,,,,,,,,,,,,,,,,,,,,,,,,,,,,,,,,,,,,,,,,812,,,,delta_new
25018 Graywacke Dr,25018 Graywacke Dr,Aldie,VA,20105,USA,"Washington-Arlington-Alexandria, DC-VA-MD-WV",38.925496,-77.550942,,ARCLVAXARS0,,Not Connected,Near Net,Commercial Building,703,327,236,,,Fiber,,FIBERLIGHT LLC,,,,,,,,,,N,,,25018,,Graywacke,,Dr,,,,,,,,No,1501+ feet,2372.0,,2995.0,,,,,,,,,,,,,,,,,,,,,,,,,,,,,,,,,,,,,,,,,,,,,,,,,,,,,,,,,,,,,,,,,,,,,,,,,,,,,,,,,,,,,,,,,,,,,,,,,,,,833,,,,delta_new
43060 Eustis St,43060 Eustis St,Chantilly,VA,20152,USA,"Washington-Arlington-Alexandria, DC-VA-MD-WV",38.912136,-77.512778,,ARCLVAXARS0,,Not Connected,Near Net,Commercial Building,703,327,236,,,Fiber,,FIBERLIGHT LLC,,,,,,,,,,N,,,43060,,Eustis,,St,,,,,,,,waterways - stream,1501+ feet,2367.0,,2535.0,,,,,,,,,,,,,,,,,,,,,,,,,,,,,,,,,,,,,,,,,,,,,,,,,,,,,,,,,,,,,,,,,,,,,,,,,,,,,,,,,,,,,,,,,,,,,,,,,,,,835,,,,delta_new
42727 Freedom St,42727 Freedom St,Chantilly,VA,20152,USA,"Washington-Arlington-Alexandria, DC-VA-MD-WV",38.911896,-77.525718,,ARCLVAXARS0,,Not Connected,Near Net,Commercial Building,703,327,236,,,Fiber,,FIBERLIGHT LLC,,,,,,,,,,N,,,42727,,Freedom,,St,,,,,,,,No,1501+ feet,2328.0,,2026.0,,,,,,,,,,,,,,,,,,,,,,,,,,,,,,,,,,,,,,,,,,,,,,,,,,,,,,,,,,,,,,,,,,,,,,,,,,,,,,,,,,,,,,,,,,,,,,,,,,,,847,,,,delta_new
42691 Nations St,42691 Nations St,Chantilly,VA,20152,USA,"Washington-Arlington-Alexandria, DC-VA-MD-WV",38.919506,-77.52456,,ARCLVAXARS0,,Not Connected,Near Net,Commercial Building,703,327,236,,,Fiber,,FIBERLIGHT LLC,,,,,,,,,,N,,,42691,,Nations,,St,,,,,,,,No,1501+ feet,2321.0,,2100.0,,,,,,,,,,,,,,,,,,,,,,,,,,,,,,,,,,,,,,,,,,,,,,,,,,,,,,,,,,,,,,,,,,,,,,,,,,,,,,,,,,,,,,,,,,,,,,,,,,,,852,,,,delta_new
43078 Corcoran Ln,43078 Corcoran Ln,Chantilly,VA,20152,USA,"Washington-Arlington-Alexandria, DC-VA-MD-WV",38.913249,-77.512551,,ARCLVAXARS0,,Not Connected,Near Net,Commercial Building,703,327,236,,,Fiber,,FIBERLIGHT LLC,,,,,,,,,,N,,,43078,,Corcoran,,Ln,,,,,,,,waterways - stream,1501+ feet,2432.0,,2317.0,,,,,,,,,,,,,,,,,,,,,,,,,,,,,,,,,,,,,,,,,,,,,,,,,,,,,,,,,,,,,,,,,,,,,,,,,,,,,,,,,,,,,,,,,,,,,,,,,,,,859,,,,delta_new
43095 Demerrit St,43095 Demerrit St,Chantilly,VA,20152,USA,"Washington-Arlington-Alexandria, DC-VA-MD-WV",38.912542,-77.512659,,ARCLVAXARS0,,Not Connected,Near Net,Commercial Building,703,327,236,,,Fiber,,FIBERLIGHT LLC,,,,,,,,,,N,,,43095,,Demerrit,,St,,,,,,,,waterways - stream,1501+ feet,2426.0,,2380.0,,,,,,,,,,,,,,,,,,,,,,,,,,,,,,,,,,,,,,,,,,,,,,,,,,,,,,,,,,,,,,,,,,,,,,,,,,,,,,,,,,,,,,,,,,,,,,,,,,,,862,,,,delta_new
24717 Kings Canyon Sq,24717 Kings Canyon Sq,Aldie,VA,20105,USA,"Washington-Arlington-Alexandria, DC-VA-MD-WV",38.933926,-77.547814,,ARCLVAXARS0,,Not Connected,Near Net,Commercial Building,703,327,236,,,Fiber,,FIBERLIGHT LLC,,,,,,,,,,N,,,24717,,Kings Canyon,,Sq,,,,,,,,No,1501+ feet,2379.0,,2301.0,,,,,,,,,,,,,,,,,,,,,,,,,,,,,,,,,,,,,,,,,,,,,,,,,,,,,,,,,,,,,,,,,,,,,,,,,,,,,,,,,,,,,,,,,,,,,,,,,,,,870,,,,delta_new
25484 Carrington Dr,25484 Carrington Dr,Chantilly,VA,20152,USA,"Washington-Arlington-Alexandria, DC-VA-MD-WV",38.915599,-77.525584,,ARCLVAXARS0,,Not Connected,Near Net,Commercial Building,703,327,236,,,Fiber,,FIBERLIGHT LLC,,,,,,,,,,N,,,25484,,Carrington,,Dr,,,,,,,,No,1501+ feet,2400.0,,2463.0,,,,,,,,,,,,,,,,,,,,,,,,,,,,,,,,,,,,,,,,,,,,,,,,,,,,,,,,,,,,,,,,,,,,,,,,,,,,,,,,,,,,,,,,,,,,,,,,,,,,876,,,,delta_new
43813 Beaver Meadow Rd,43813 Beaver Meadow Rd,Sterling,VA,20166,USA,"Washington-Arlington-Alexandria, DC-VA-MD-WV",38.967626,-77.486259,,DLLSVAXARS0,,Not Connected,Near Net,Commercial Building,703,260,236,,,Fiber,,FIBERLIGHT LLC,,,,,,,,,,N,,,43813,,Beaver Meadow,,Rd,,,,,,,,No,1501+ feet,2387.0,,2660.0,,,,,,,,,,,,,,,,,,,,,,,,,,,,,,,,,,,,,,,,,,,,,,,,,,,,,,,,,,,,,,,,,,,,,,,,,,,,,,,,,,,,,,,,,,,,,,,,,,,,880,,,,delta_new
25492 Carrington Dr,25492 Carrington Dr,Chantilly,VA,20152,USA,"Washington-Arlington-Alexandria, DC-VA-MD-WV",38.915226,-77.525597,,ARCLVAXARS0,,Not Connected,Near Net,Commercial Building,703,327,236,,,Fiber,,FIBERLIGHT LLC,,,,,,,,,,N,,,25492,,Carrington,,Dr,,,,,,,,No,1501+ feet,2386.0,,2328.0,,,,,,,,,,,,,,,,,,,,,,,,,,,,,,,,,,,,,,,,,,,,,,,,,,,,,,,,,,,,,,,,,,,,,,,,,,,,,,,,,,,,,,,,,,,,,,,,,,,,881,,,,delta_new
43435 Valleyvista Ln,43435 Valleyvista Ln,Chantilly,VA,20152,USA,"Washington-Arlington-Alexandria, DC-VA-MD-WV",38.918551,-77.500145,,ARCLVAXARS0,,Not Connected,Near Net,Commercial Building,703,327,236,,,Fiber,,FIBERLIGHT LLC,,,,,,,,,,N,,,43435,,Valleyvista,,Ln,,,,,,,,No,1501+ feet,1245.0,,2102.0,,,,,,,,,,,,,,,,,,,,,,,,,,,,,,,,,,,,,,,,,,,,,,,,,,,,,,,,,,,,,,,,,,,,,,,,,,,,,,,,,,,,,,,,,,,,,,,,,,,,884,,,,delta_new
22829 Emerald Chase Pl,22829 Emerald Chase Pl,Ashburn,VA,20148,USA,"Washington-Arlington-Alexandria, DC-VA-MD-WV",38.985547,-77.542241,,ARCLVAXARS0,,Not Connected,Near Net,Commercial Building,703,327,236,,,Fiber,,FIBERLIGHT LLC,,,,,,,,,,N,,,22829,,Emerald Chase,,Pl,,,,,,,,No,1501+ feet,1333.0,,2222.0,,,,,,,,,,,,,,,,,,,,,,,,,,,,,,,,,,,,,,,,,,,,,,,,,,,,,,,,,,,,,,,,,,,,,,,,,,,,,,,,,,,,,,,,,,,,,,,,,,,,885,,,,delta_new
41753 John Mosby Hwy,41753 John Mosby Hwy,Aldie,VA,20105,USA,"Washington-Arlington-Alexandria, DC-VA-MD-WV",38.9432,-77.559,,ARCLVAXARS0,,Not Connected,Near Net,Commercial Building,703,327,236,,,Fiber,,FIBERLIGHT LLC,,,,,,,,,,N,,,41753,,John Mosby,,Hwy,,,,,,,,No,1001 - 1500 feet,539.0,,1015.0,,,,,,,,,,,,,,,,,,,,,,,,,,,,,,,,,,,,,,,,,,,,,,,,,,,,,,,,,,,,,,,,,,,,,,,,,,,,,,,,,,,,,,,,,,,,,,,,,,,,888,,,,delta_new
42228 Palm Cove Ct,42228 Palm Cove Ct,Chantilly,VA,20152,USA,"Washington-Arlington-Alexandria, DC-VA-MD-WV",38.925414,-77.54262,,ARCLVAXARS0,,Not Connected,Near Net,Commercial Building,703,327,236,,,Fiber,,FIBERLIGHT LLC,,,,,,,,,,N,,,42228,,Palm Cove,,Ct,,,,,,,,No,1001 - 1500 feet,537.0,,1335.0,,,,,,,,,,,,,,,,,,,,,,,,,,,,,,,,,,,,,,,,,,,,,,,,,,,,,,,,,,,,,,,,,,,,,,,,,,,,,,,,,,,,,,,,,,,,,,,,,,,,891,,,,delta_new
22082 Avonworth Sq,22082 Avonworth Sq,Ashburn,VA,20148,USA,"Washington-Arlington-Alexandria, DC-VA-MD-WV",39.005397,-77.514187,,ASBNVAASDS0,,Not Connected,Near Net,Commercial Building,703,723,246,,,Fiber,,FIBERLIGHT LLC,,,,,,,,,,N,,,22082,,Avonworth,,Sq,,,,,,,,No,501 - 1000 feet,536.0,,661.0,,,,,,,,,,,,,,,,,,,,,,,,,,,,,,,,,,,,,,,,,,,,,,,,,,,,,,,,,,,,,,,,,,,,,,,,,,,,,,,,,,,,,,,,,,,,,,,,,,,,894,,,,delta_new
25417 Jubilant Dr,25417 Jubilant Dr,Aldie,VA,20105,USA,"Washington-Arlington-Alexandria, DC-VA-MD-WV",38.914685,-77.569137,,ARCLVAXARS0,,Not Connected,Near Net,Commercial Building,703,327,236,,,Fiber,,FIBERLIGHT LLC,,,,,,,,,,N,,,25417,,Jubilant,,Dr,,,,,,,,No,1501+ feet,530.0,,1944.0,,,,,,,,,,,,,,,,,,,,,,,,,,,,,,,,,,,,,,,,,,,,,,,,,,,,,,,,,,,,,,,,,,,,,,,,,,,,,,,,,,,,,,,,,,,,,,,,,,,,897,,,,delta_new
22295 Lonsdale Dr,22295 Lonsdale Dr,Ashburn,VA,20148,USA,"Washington-Arlington-Alexandria, DC-VA-MD-WV",39.000086,-77.521418,,ASBNVAASDS0,,Not Connected,Near Net,Commercial Building,703,723,246,,,Fiber,,FIBERLIGHT LLC,,,,,,,,,,N,,,22295,,Lonsdale,,Dr,,,,,,,,No,501 - 1000 feet,524.0,,703.0,,,,,,,,,,,,,,,,,,,,,,,,,,,,,,,,,,,,,,,,,,,,,,,,,,,,,,,,,,,,,,,,,,,,,,,,,,,,,,,,,,,,,,,,,,,,,,,,,,,,898,,,,delta_new
25143 Beach Pl,25143 Beach Pl,Chantilly,VA,20152,USA,"Washington-Arlington-Alexandria, DC-VA-MD-WV",38.921552,-77.543479,,ARCLVAXARS0,,Not Connected,Near Net,Commercial Building,703,327,236,,,Fiber,,FIBERLIGHT LLC,,,,,,,,,,N,,,25143,,Beach,,Pl,,,,,,,,No,1001 - 1500 feet,522.0,,1148.0,,,,,,,,,,,,,,,,,,,,,,,,,,,,,,,,,,,,,,,,,,,,,,,,,,,,,,,,,,,,,,,,,,,,,,,,,,,,,,,,,,,,,,,,,,,,,,,,,,,,901,,,,delta_new
25250 Willard Rd,25250 Willard Rd,Chantilly,VA,20152,USA,"Washington-Arlington-Alexandria, DC-VA-MD-WV",38.918544,-77.486993,,ARCLVAXARS0,,Not Connected,Near Net,Commercial Building,703,327,236,,,Fiber,,FIBERLIGHT LLC,,,,,,,,,,N,,,25250,,Willard,,Rd,,,,,,,,No,501 - 1000 feet,517.0,,710.0,,,,,,,,,,,,,,,,,,,,,,,,,,,,,,,,,,,,,,,,,,,,,,,,,,,,,,,,,,,,,,,,,,,,,,,,,,,,,,,,,,,,,,,,,,,,,,,,,,,,904,,,,delta_new
43520 Yukon Dr,43520 Yukon Dr,Ashburn,VA,20147,USA,"Washington-Arlington-Alexandria, DC-VA-MD-WV",39.010258,-77.493745,,HRNDVASTDS0,,Not Connected,Near Net,Commercial Building,703,265,236,,,Fiber,,FIBERLIGHT LLC,,,,,,,,,,N,,,43520,,Yukon,,Dr,,,,,,,,No,1001 - 1500 feet,513.0,,1117.0,,,,,,,,,,,,,,,,,,,,,,,,,,,,,,,,,,,,,,,,,,,,,,,,,,,,,,,,,,,,,,,,,,,,,,,,,,,,,,,,,,,,,,,,,,,,,,,,,,,,906,,,,delta_new
23544 Pebble Run Pl,23544 Pebble Run Pl,Sterling,VA,20166,USA,"Washington-Arlington-Alexandria, DC-VA-MD-WV",38.966897,-77.501317,,DLLSVAXARS0,,Not Connected,Near Net,Commercial Building,703,260,236,,,Fiber,,FIBERLIGHT LLC,,,,,,,,,,N,,,23544,,Pebble Run,,Pl,,,,,,,,No,1501+ feet,511.0,,2759.0,,,,,,,,,,,,,,,,,,,,,,,,,,,,,,,,,,,,,,,,,,,,,,,,,,,,,,,,,,,,,,,,,,,,,,,,,,,,,,,,,,,,,,,,,,,,,,,,,,,,908,,,,delta_new
23293 Rogerdale Pl,23293 Rogerdale Pl,Sterling,VA,20166,USA,"Washington-Arlington-Alexandria, DC-VA-MD-WV",38.974636,-77.492811,,DLLSVAXARS0,,Not Connected,Near Net,Commercial Building,703,260,236,,,Fiber,,FIBERLIGHT LLC,,,,,,,,,,N,,,23293,,Rogerdale,,Pl,,,,,,,,No,1001 - 1500 feet,541.0,,1330.0,,,,,,,,,,,,,,,,,,,,,,,,,,,,,,,,,,,,,,,,,,,,,,,,,,,,,,,,,,,,,,,,,,,,,,,,,,,,,,,,,,,,,,,,,,,,,,,,,,,,910,,,,delta_new
43032 Foxtrail Woods Ter,43032 Foxtrail Woods Ter,Ashburn,VA,20148,USA,"Washington-Arlington-Alexandria, DC-VA-MD-WV",38.971948,-77.514022,,ASBNVAASDS0,,Not Connected,Near Net,Commercial Building,703,723,246,,,Fiber,,FIBERLIGHT LLC,,,,,,,,,,N,,,43032,,Foxtrail Woods,,Ter,,,,,,,,No,1501+ feet,541.0,,1827.0,,,,,,,,,,,,,,,,,,,,,,,,,,,,,,,,,,,,,,,,,,,,,,,,,,,,,,,,,,,,,,,,,,,,,,,,,,,,,,,,,,,,,,,,,,,,,,,,,,,,911,,,,delta_new
25066 White Sands Dr,25066 White Sands Dr,Chantilly,VA,20152,USA,"Washington-Arlington-Alexandria, DC-VA-MD-WV",38.924076,-77.543017,,ARCLVAXARS0,,Not Connected,Near Net,Commercial Building,703,327,236,,,Fiber,,FIBERLIGHT LLC,,,,,,,,,,N,,,25066,,White Sands,,Dr,,,,,,,,No,501 - 1000 feet,546.0,,863.0,,,,,,,,,,,,,,,,,,,,,,,,,,,,,,,,,,,,,,,,,,,,,,,,,,,,,,,,,,,,,,,,,,,,,,,,,,,,,,,,,,,,,,,,,,,,,,,,,,,,912,,,,delta_new
22062 Avonworth Sq,22062 Avonworth Sq,Ashburn,VA,20148,USA,"Washington-Arlington-Alexandria, DC-VA-MD-WV",39.00605,-77.513505,,ASBNVAASDS0,,Not Connected,Near Net,Commercial Building,703,723,246,,,Fiber,,FIBERLIGHT LLC,,,,,,,,,,N,,,22062,,Avonworth,,Sq,,,,,,,,No,501 - 1000 feet,546.0,,663.0,,,,,,,,,,,,,,,,,,,,,,,,,,,,,,,,,,,,,,,,,,,,,,,,,,,,,,,,,,,,,,,,,,,,,,,,,,,,,,,,,,,,,,,,,,,,,,,,,,,,913,,,,delta_new
42223 Fallen Timber Ln,42223 Fallen Timber Ln,Ashburn,VA,20148,USA,"Washington-Arlington-Alexandria, DC-VA-MD-WV",38.982448,-77.541825,,ARCLVAXARS0,,Not Connected,Near Net,Commercial Building,703,327,236,,,Fiber,,FIBERLIGHT LLC,,,,,,,,,,N,,,42223,,Fallen Timber,,Ln,,,,,,,,No,1001 - 1500 feet,576.0,,1384.0,,,,,,,,,,,,,,,,,,,,,,,,,,,,,,,,,,,,,,,,,,,,,,,,,,,,,,,,,,,,,,,,,,,,,,,,,,,,,,,,,,,,,,,,,,,,,,,,,,,,915,,,,delta_new
42691 Chisholm Dr,42691 Chisholm Dr,Ashburn,VA,20148,USA,"Washington-Arlington-Alexandria, DC-VA-MD-WV",39.002884,-77.525339,,ASBNVAASDS0,,Not Connected,Near Net,Commercial Building,703,723,246,,,Fiber,,FIBERLIGHT LLC,,,,,,,,,,N,,,42691,,Chisholm,,Dr,,,,,,,,No,1001 - 1500 feet,569.0,,1004.0,,,,,,,,,,,,,,,,,,,,,,,,,,,,,,,,,,,,,,,,,,,,,,,,,,,,,,,,,,,,,,,,,,,,,,,,,,,,,,,,,,,,,,,,,,,,,,,,,,,,919,,,,delta_new
23490 Bluemont Chapel Ter,23490 Bluemont Chapel Ter,Ashburn,VA,20148,USA,"Washington-Arlington-Alexandria, DC-VA-MD-WV",38.966973,-77.510603,,ASBNVAASDS0,,Not Connected,Near Net,Commercial Building,703,723,246,,,Fiber,,FIBERLIGHT LLC,,,,,,,,,,N,,,23490,,Bluemont Chapel,,Ter,,,,,,,,No,501 - 1000 feet,568.0,,915.0,,,,,,,,,,,,,,,,,,,,,,,,,,,,,,,,,,,,,,,,,,,,,,,,,,,,,,,,,,,,,,,,,,,,,,,,,,,,,,,,,,,,,,,,,,,,,,,,,,,,920,,,,delta_new
25110 Beach Pl,25110 Beach Pl,Chantilly,VA,20152,USA,"Washington-Arlington-Alexandria, DC-VA-MD-WV",38.923122,-77.543271,,ARCLVAXARS0,,Not Connected,Near Net,Commercial Building,703,327,236,,,Fiber,,FIBERLIGHT LLC,,,,,,,,,,N,,,25110,,Beach,,Pl,,,,,,,,No,501 - 1000 feet,554.0,,599.0,,,,,,,,,,,,,,,,,,,,,,,,,,,,,,,,,,,,,,,,,,,,,,,,,,,,,,,,,,,,,,,,,,,,,,,,,,,,,,,,,,,,,,,,,,,,,,,,,,,,927,,,,delta_new
41859 John Mosby Hwy,41859 John Mosby Hwy,Aldie,VA,20105,USA,"Washington-Arlington-Alexandria, DC-VA-MD-WV",38.940904,-77.556372,,ARCLVAXARS0,,Not Connected,Near Net,Commercial Building,703,327,236,,,Fiber,,FIBERLIGHT LLC,,,,,,,,,,N,,,41859,,John Mosby,,Hwy,,,,,,,,No,501 - 1000 feet,546.0,,649.0,,,,,,,,,,,,,,,,,,,,,,,,,,,,,,,,,,,,,,,,,,,,,,,,,,,,,,,,,,,,,,,,,,,,,,,,,,,,,,,,,,,,,,,,,,,,,,,,,,,,937,,,,delta_new
43315 Crandall Sq,43315 Crandall Sq,Ashburn,VA,20148,USA,"Washington-Arlington-Alexandria, DC-VA-MD-WV",38.991145,-77.503484,,ASBNVAASDS0,,Not Connected,Near Net,Commercial Building,703,723,246,,,Fiber,,FIBERLIGHT LLC,,,,,,,,,,N,,,43315,,Crandall,,Sq,,,,,,,,No,1501+ feet,555.0,,2720.0,,,,,,,,,,,,,,,,,,,,,,,,,,,,,,,,,,,,,,,,,,,,,,,,,,,,,,,,,,,,,,,,,,,,,,,,,,,,,,,,,,,,,,,,,,,,,,,,,,,,938,,,,delta_new
24441 Stone Springs Blvd,24441 Stone Springs Blvd,Sterling,VA,20166,USA,"Washington-Arlington-Alexandria, DC-VA-MD-WV",38.941287,-77.544962,,DLLSVAXARS0,,Not Connected,Near Net,Commercial Building,703,260,236,,,Fiber,,FIBERLIGHT LLC,,,,,,,,,,N,,,24441,,Stone Springs,,Blvd,,,,,,,,No,501 - 1000 feet,503.0,,763.0,,,,,,,,,,,,,,,,,,,,,,,,,,,,,,,,,,,,,,,,,,,,,,,,,,,,,,,,,,,,,,,,,,,,,,,,,,,,,,,,,,,,,,,,,,,,,,,,,,,,940,,,,delta_new
24301 Millstream Dr,24301 Millstream Dr,Aldie,VA,20105,USA,"Washington-Arlington-Alexandria, DC-VA-MD-WV",38.89568,-77.5705,,HYMRVAXARS2,,Not Connected,Near Net,Commercial Building,571,248,236,,,Fiber,,FIBERLIGHT LLC,,,,,,,,,,N,,,24301,,Millstream,,Dr,,,,,,,,No,501 - 1000 feet,500.0,,557.0,,,,,,,,,,,,,,,,,,,,,,,,,,,,,,,,,,,,,,,,,,,,,,,,,,,,,,,,,,,,,,,,,,,,,,,,,,,,,,,,,,,,,,,,,,,,,,,,,,,,941,,,,delta_new
43040 Addlestone Pl,43040 Addlestone Pl,Ashburn,VA,20148,USA,"Washington-Arlington-Alexandria, DC-VA-MD-WV",38.981439,-77.513462,,ASBNVAASDS0,,Not Connected,Near Net,Commercial Building,703,723,246,,,Fiber,,FIBERLIGHT LLC,,,,,,,,,,N,,,43040,,Addlestone,,Pl,,,,,,,,No,1501+ feet,457.0,,1550.0,,,,,,,,,,,,,,,,,,,,,,,,,,,,,,,,,,,,,,,,,,,,,,,,,,,,,,,,,,,,,,,,,,,,,,,,,,,,,,,,,,,,,,,,,,,,,,,,,,,,943,,,,delta_new
23745 Pebble Run Pl,23745 Pebble Run Pl,Sterling,VA,20166,USA,"Washington-Arlington-Alexandria, DC-VA-MD-WV",38.959994,-77.501091,,DLLSVAXARS0,,Not Connected,Near Net,Commercial Building,703,260,236,,,Fiber,,FIBERLIGHT LLC,,,,,,,,,,N,,,23745,,Pebble Run,,Pl,,,,,,,,No,1001 - 1500 feet,456.0,,1062.0,,,,,,,,,,,,,,,,,,,,,,,,,,,,,,,,,,,,,,,,,,,,,,,,,,,,,,,,,,,,,,,,,,,,,,,,,,,,,,,,,,,,,,,,,,,,,,,,,,,,945,,,,delta_new
24908 Evergreen Mills Rd,24908 Evergreen Mills Rd,Sterling,VA,20166,USA,"Washington-Arlington-Alexandria, DC-VA-MD-WV",38.94976,-77.527048,,DLLSVAXARS0,,Not Connected,Near Net,Commercial Building,703,260,236,,,Fiber,,FIBERLIGHT LLC,,,,,,,,,,N,,,24908,,Evergreen Mills,,Rd,,,,,,,,No,501 - 1000 feet,452.0,,695.0,,,,,,,,,,,,,,,,,,,,,,,,,,,,,,,,,,,,,,,,,,,,,,,,,,,,,,,,,,,,,,,,,,,,,,,,,,,,,,,,,,,,,,,,,,,,,,,,,,,,946,,,,delta_new
25504 Crossfield Dr,25504 Crossfield Dr,Chantilly,VA,20152,USA,"Washington-Arlington-Alexandria, DC-VA-MD-WV",38.91117,-77.520436,,ARCLVAXARS0,,Not Connected,Near Net,Commercial Building,703,327,236,,,Fiber,,FIBERLIGHT LLC,,,,,,,,,,N,,,25504,,Crossfield,,Dr,,,,,,,,No,501 - 1000 feet,450.0,,945.0,,,,,,,,,,,,,,,,,,,,,,,,,,,,,,,,,,,,,,,,,,,,,,,,,,,,,,,,,,,,,,,,,,,,,,,,,,,,,,,,,,,,,,,,,,,,,,,,,,,,949,,,,delta_new
22059 Stone Hollow Dr,22059 Stone Hollow Dr,Ashburn,VA,20148,USA,"Washington-Arlington-Alexandria, DC-VA-MD-WV",39.005419,-77.517773,,ASBNVAASDS0,,Not Connected,Near Net,Commercial Building,703,723,246,,,Fiber,,FIBERLIGHT LLC,,,,,,,,,,N,,,22059,,Stone Hollow,,Dr,,,,,,,,No,501 - 1000 feet,430.0,,643.0,,,,,,,,,,,,,,,,,,,,,,,,,,,,,,,,,,,,,,,,,,,,,,,,,,,,,,,,,,,,,,,,,,,,,,,,,,,,,,,,,,,,,,,,,,,,,,,,,,,,958,,,,delta_new
24930 Calcite Pl,24930 Calcite Pl,Aldie,VA,20105,USA,"Washington-Arlington-Alexandria, DC-VA-MD-WV",38.927613,-77.544652,,ARCLVAXARS0,,Not Connected,Near Net,Commercial Building,703,327,236,,,Fiber,,FIBERLIGHT LLC,,,,,,,,,,N,,,24930,,Calcite,,Pl,,,,,,,,No,1501+ feet,430.0,,2245.0,,,,,,,,,,,,,,,,,,,,,,,,,,,,,,,,,,,,,,,,,,,,,,,,,,,,,,,,,,,,,,,,,,,,,,,,,,,,,,,,,,,,,,,,,,,,,,,,,,,,959,,,,delta_new
42350 Tall Cedars Pkwy,42350 Tall Cedars Pkwy,Chantilly,VA,20152,USA,"Washington-Arlington-Alexandria, DC-VA-MD-WV",38.932565,-77.539135,,ARCLVAXARS0,,Not Connected,Near Net,Commercial Building,703,327,236,,,Fiber,,FIBERLIGHT LLC,,,,,,,,,,N,,,42350,,Tall Cedars,,Pkwy,,,,,,,,No,1001 - 1500 feet,412.0,,1083.0,,,,,,,,,,,,,,,,,,,,,,,,,,,,,,,,,,,,,,,,,,,,,,,,,,,,,,,,,,,,,,,,,,,,,,,,,,,,,,,,,,,,,,,,,,,,,,,,,,,,965,,,,delta_new
25256 Whippoorwill Ter,25256 Whippoorwill Ter,Chantilly,VA,20152,USA,"Washington-Arlington-Alexandria, DC-VA-MD-WV",38.918544,-77.519409,,ARCLVAXARS0,,Not Connected,Near Net,Commercial Building,703,327,236,,,Fiber,,FIBERLIGHT LLC,,,,,,,,,,N,,,25256,,Whippoorwill,,Ter,,,,,,,,No,1501+ feet,438.0,,2054.0,,,,,,,,,,,,,,,,,,,,,,,,,,,,,,,,,,,,,,,,,,,,,,,,,,,,,,,,,,,,,,,,,,,,,,,,,,,,,,,,,,,,,,,,,,,,,,,,,,,,966,,,,delta_new
23510 Belvoir Woods Ter,23510 Belvoir Woods Ter,Ashburn,VA,20148,USA,"Washington-Arlington-Alexandria, DC-VA-MD-WV",38.96718,-77.510996,,ASBNVAASDS0,,Not Connected,Near Net,Commercial Building,703,723,246,,,Fiber,,FIBERLIGHT LLC,,,,,,,,,,N,,,23510,,Belvoir Woods,,Ter,,,,,,,,No,501 - 1000 feet,461.0,,556.0,,,,,,,,,,,,,,,,,,,,,,,,,,,,,,,,,,,,,,,,,,,,,,,,,,,,,,,,,,,,,,,,,,,,,,,,,,,,,,,,,,,,,,,,,,,,,,,,,,,,969,,,,delta_new
43571 Freeport Pl,43571 Freeport Pl,Sterling,VA,20166,USA,"Washington-Arlington-Alexandria, DC-VA-MD-WV",38.970231,-77.493786,,DLLSVAXARS0,,Not Connected,Near Net,Commercial Building,703,260,236,,,Fiber,,FIBERLIGHT LLC,,,,,,,,,,N,,,43571,,Freeport,,Pl,,,,,,,,No,501 - 1000 feet,497.0,,677.0,,,,,,,,,,,,,,,,,,,,,,,,,,,,,,,,,,,,,,,,,,,,,,,,,,,,,,,,,,,,,,,,,,,,,,,,,,,,,,,,,,,,,,,,,,,,,,,,,,,,973,,,,delta_new
43021 Rosemount Woods Ter,43021 Rosemount Woods Ter,Ashburn,VA,20148,USA,"Washington-Arlington-Alexandria, DC-VA-MD-WV",38.969089,-77.514243,,ASBNVAASDS0,,Not Connected,Near Net,Commercial Building,703,723,246,,,Fiber,,FIBERLIGHT LLC,,,,,,,,,,N,,,43021,,Rosemount Woods,,Ter,,,,,,,,No,1001 - 1500 feet,496.0,,1108.0,,,,,,,,,,,,,,,,,,,,,,,,,,,,,,,,,,,,,,,,,,,,,,,,,,,,,,,,,,,,,,,,,,,,,,,,,,,,,,,,,,,,,,,,,,,,,,,,,,,,974,,,,delta_new
43044 Addlestone Pl,43044 Addlestone Pl,Ashburn,VA,20148,USA,"Washington-Arlington-Alexandria, DC-VA-MD-WV",38.981488,-77.513209,,ASBNVAASDS0,,Not Connected,Near Net,Commercial Building,703,723,246,,,Fiber,,FIBERLIGHT LLC,,,,,,,,,,N,,,43044,,Addlestone,,Pl,,,,,,,,No,1501+ feet,483.0,,1623.0,,,,,,,,,,,,,,,,,,,,,,,,,,,,,,,,,,,,,,,,,,,,,,,,,,,,,,,,,,,,,,,,,,,,,,,,,,,,,,,,,,,,,,,,,,,,,,,,,,,,978,,,,delta_new
41551 Bassett Pl,41551 Bassett Pl,Aldie,VA,20105,USA,"Washington-Arlington-Alexandria, DC-VA-MD-WV",38.924376,-77.565403,,ARCLVAXARS0,,Not Connected,Near Net,Commercial Building,703,327,236,,,Fiber,,FIBERLIGHT LLC,,,,,,,,,,N,,,41551,,Bassett,,Pl,,,,,,,,No,1501+ feet,483.0,,2600.0,,,,,,,,,,,,,,,,,,,,,,,,,,,,,,,,,,,,,,,,,,,,,,,,,,,,,,,,,,,,,,,,,,,,,,,,,,,,,,,,,,,,,,,,,,,,,,,,,,,,980,,,,delta_new
23385 Summerstown Pl,23385 Summerstown Pl,Sterling,VA,20166,USA,"Washington-Arlington-Alexandria, DC-VA-MD-WV",38.969226,-77.494231,,DLLSVAXARS0,,Not Connected,Near Net,Commercial Building,703,260,236,,,Fiber,,FIBERLIGHT LLC,,,,,,,,,,N,,,23385,,Summerstown,,Pl,,,,,,,,No,1001 - 1500 feet,480.0,,1077.0,,,,,,,,,,,,,,,,,,,,,,,,,,,,,,,,,,,,,,,,,,,,,,,,,,,,,,,,,,,,,,,,,,,,,,,,,,,,,,,,,,,,,,,,,,,,,,,,,,,,981,,,,delta_new
41451 Carriage Horse Dr,41451 Carriage Horse Dr,Aldie,VA,20105,USA,"Washington-Arlington-Alexandria, DC-VA-MD-WV",38.908089,-77.569235,,ARCLVAXARS0,,Not Connected,Near Net,Commercial Building,703,327,236,,,Fiber,,FIBERLIGHT LLC,,,,,,,,,,N,,,41451,,Carriage Horse,,Dr,,,,,,,,No,501 - 1000 feet,478.0,,946.0,,,,,,,,,,,,,,,,,,,,,,,,,,,,,,,,,,,,,,,,,,,,,,,,,,,,,,,,,,,,,,,,,,,,,,,,,,,,,,,,,,,,,,,,,,,,,,,,,,,,982,,,,delta_new
23390 Bymes Mill Ter,23390 Bymes Mill Ter,Ashburn,VA,20148,USA,"Washington-Arlington-Alexandria, DC-VA-MD-WV",38.969346,-77.507248,,ASBNVAASDS0,,Not Connected,Near Net,Commercial Building,703,723,246,,,Fiber,,FIBERLIGHT LLC,,,,,,,,,,N,,,23390,,Bymes Mill,,Ter,,,,,,,,No,501 - 1000 feet,466.0,,800.0,,,,,,,,,,,,,,,,,,,,,,,,,,,,,,,,,,,,,,,,,,,,,,,,,,,,,,,,,,,,,,,,,,,,,,,,,,,,,,,,,,,,,,,,,,,,,,,,,,,,988,,,,delta_new
22833 Quicksilver Dr,22833 Quicksilver Dr,Sterling,VA,20166,USA,"Washington-Arlington-Alexandria, DC-VA-MD-WV",38.981777,-77.478141,,DLLSVAXARS0,,Not Connected,Near Net,Commercial Building,703,260,236,,,Fiber,,FIBERLIGHT LLC,,,,,,,,,,N,,,22833,,Quicksilver,,Dr,,,,,,,,No,501 - 1000 feet,466.0,,925.0,,,,,,,,,,,,,,,,,,,,,,,,,,,,,,,,,,,,,,,,,,,,,,,,,,,,,,,,,,,,,,,,,,,,,,,,,,,,,,,,,,,,,,,,,,,,,,,,,,,,989,,,,delta_new
42660 Macauley Pl,42660 Macauley Pl,Ashburn,VA,20148,USA,"Washington-Arlington-Alexandria, DC-VA-MD-WV",39.002532,-77.526482,,ASBNVAASDS0,,Not Connected,Near Net,Commercial Building,703,723,246,,,Fiber,,FIBERLIGHT LLC,,,,,,,,,,N,,,42660,,Macauley,,Pl,,,,,,,,No,501 - 1000 feet,462.0,,921.0,,,,,,,,,,,,,,,,,,,,,,,,,,,,,,,,,,,,,,,,,,,,,,,,,,,,,,,,,,,,,,,,,,,,,,,,,,,,,,,,,,,,,,,,,,,,,,,,,,,,990,,,,delta_new
24365 Racefield Ln,24365 Racefield Ln,Aldie,VA,20105,USA,"Washington-Arlington-Alexandria, DC-VA-MD-WV",38.951913,-77.552215,,ARCLVAXARS0,,Not Connected,Near Net,Commercial Building,703,327,236,,,Fiber,,FIBERLIGHT LLC,,,,,,,,,,N,,,24365,,Racefield,,Ln,,,,,,,,No,501 - 1000 feet,411.0,,871.0,,,,,,,,,,,,,,,,,,,,,,,,,,,,,,,,,,,,,,,,,,,,,,,,,,,,,,,,,,,,,,,,,,,,,,,,,,,,,,,,,,,,,,,,,,,,,,,,,,,,993,,,,delta_new
42742 Ravenglass Dr,42742 Ravenglass Dr,Ashburn,VA,20148,USA,"Washington-Arlington-Alexandria, DC-VA-MD-WV",38.99945,-77.523921,,ASBNVAASDS0,,Not Connected,Near Net,Commercial Building,703,723,246,,,Fiber,,FIBERLIGHT LLC,,,,,,,,,,N,,,42742,,Ravenglass,,Dr,,,,,,,,No,1501+ feet,700.0,,1654.0,,,,,,,,,,,,,,,,,,,,,,,,,,,,,,,,,,,,,,,,,,,,,,,,,,,,,,,,,,,,,,,,,,,,,,,,,,,,,,,,,,,,,,,,,,,,,,,,,,,,997,,,,delta_new
23394 Kerrisdale Way,23394 Kerrisdale Way,Sterling,VA,20166,USA,"Washington-Arlington-Alexandria, DC-VA-MD-WV",38.968112,-77.495407,,DLLSVAXARS0,,Not Connected,Near Net,Commercial Building,703,260,236,,,Fiber,,FIBERLIGHT LLC,,,,,,,,,,N,,,23394,,Kerrisdale,,Way,,,,,,,,No,1501+ feet,691.0,,1900.0,,,,,,,,,,,,,,,,,,,,,,,,,,,,,,,,,,,,,,,,,,,,,,,,,,,,,,,,,,,,,,,,,,,,,,,,,,,,,,,,,,,,,,,,,,,,,,,,,,,,1002,,,,delta_new
42979 Park Creek Dr,42979 Park Creek Dr,Ashburn,VA,20148,USA,"Washington-Arlington-Alexandria, DC-VA-MD-WV",39.004045,-77.514713,,ASBNVAASDS0,,Not Connected,Near Net,Commercial Building,703,723,246,,,Fiber,,FIBERLIGHT LLC,,,,,,,,,,N,,,42979,,Park Creek,,Dr,,,,,,,,No,501 - 1000 feet,687.0,,821.0,,,,,,,,,,,,,,,,,,,,,,,,,,,,,,,,,,,,,,,,,,,,,,,,,,,,,,,,,,,,,,,,,,,,,,,,,,,,,,,,,,,,,,,,,,,,,,,,,,,,1004,,,,delta_new
41025 Willowsford Ln,41025 Willowsford Ln,Aldie,VA,20105,USA,"Washington-Arlington-Alexandria, DC-VA-MD-WV",38.925827,-77.584666,,ARCLVAXARS0,,Not Connected,Near Net,Commercial Building,703,327,236,,,Fiber,,FIBERLIGHT LLC,,,,,,,,,,N,,,41025,,Willowsford,,Ln,,,,,,,,No,501 - 1000 feet,687.0,,995.0,,,,,,,,,,,,,,,,,,,,,,,,,,,,,,,,,,,,,,,,,,,,,,,,,,,,,,,,,,,,,,,,,,,,,,,,,,,,,,,,,,,,,,,,,,,,,,,,,,,,1007,,,,delta_new
24468 Moon Glade Ct,24468 Moon Glade Ct,Aldie,VA,20105,USA,"Washington-Arlington-Alexandria, DC-VA-MD-WV",38.92836,-77.56649,,ARCLVAXARS0,,Not Connected,Near Net,Commercial Building,703,327,236,,,Fiber,,FIBERLIGHT LLC,,,,,,,,,,N,,,24468,,Moon Glade,,Ct,,,,,,,,No,501 - 1000 feet,682.0,,891.0,,,,,,,,,,,,,,,,,,,,,,,,,,,,,,,,,,,,,,,,,,,,,,,,,,,,,,,,,,,,,,,,,,,,,,,,,,,,,,,,,,,,,,,,,,,,,,,,,,,,1009,,,,delta_new
42755 Macauley Pl,42755 Macauley Pl,Ashburn,VA,20148,USA,"Washington-Arlington-Alexandria, DC-VA-MD-WV",39.003234,-77.523029,,ASBNVAASDS0,,Not Connected,Near Net,Commercial Building,703,723,246,,,Fiber,,FIBERLIGHT LLC,,,,,,,,,,N,,,42755,,Macauley,,Pl,,,,,,,,No,1001 - 1500 feet,675.0,,1411.0,,,,,,,,,,,,,,,,,,,,,,,,,,,,,,,,,,,,,,,,,,,,,,,,,,,,,,,,,,,,,,,,,,,,,,,,,,,,,,,,,,,,,,,,,,,,,,,,,,,,1012,,,,delta_new
43089 Addlestone Pl,43089 Addlestone Pl,Ashburn,VA,20148,USA,"Washington-Arlington-Alexandria, DC-VA-MD-WV",38.98157,-77.5103,,ASBNVAASDS0,,Not Connected,Near Net,Commercial Building,703,723,246,,,Fiber,,FIBERLIGHT LLC,,,,,,,,,,N,,,43089,,Addlestone,,Pl,,,,,,,,No,1501+ feet,672.0,,2481.0,,,,,,,,,,,,,,,,,,,,,,,,,,,,,,,,,,,,,,,,,,,,,,,,,,,,,,,,,,,,,,,,,,,,,,,,,,,,,,,,,,,,,,,,,,,,,,,,,,,,1015,,,,delta_new
24570 Gum Spg Rd,24570 Gum Spg Rd,Chantilly,VA,20152,USA,"Washington-Arlington-Alexandria, DC-VA-MD-WV",38.936337,-77.541251,,ARCLVAXARS0,,Not Connected,Near Net,Commercial Building,703,327,236,,,Fiber,,FIBERLIGHT LLC,,,,,,,,,,N,,,24570,,Gum,,Spg Rd,,,,,,,,No,501 - 1000 feet,672.0,,959.0,,,,,,,,,,,,,,,,,,,,,,,,,,,,,,,,,,,,,,,,,,,,,,,,,,,,,,,,,,,,,,,,,,,,,,,,,,,,,,,,,,,,,,,,,,,,,,,,,,,,1016,,,,delta_new
43136 Crosswind Ter,43136 Crosswind Ter,Ashburn,VA,20148,USA,"Washington-Arlington-Alexandria, DC-VA-MD-WV",39.010092,-77.509345,,ASBNVAASDS0,,Not Connected,Near Net,Commercial Building,703,723,246,,,Fiber,,FIBERLIGHT LLC,,,,,,,,,,N,,,43136,,Crosswind,,Ter,,,,,,,,waterways - ditch,1501+ feet,704.0,,2056.0,,,,,,,,,,,,,,,,,,,,,,,,,,,,,,,,,,,,,,,,,,,,,,,,,,,,,,,,,,,,,,,,,,,,,,,,,,,,,,,,,,,,,,,,,,,,,,,,,,,,1019,,,,delta_new
25324 Ashbury Dr,25324 Ashbury Dr,Chantilly,VA,20152,USA,"Washington-Arlington-Alexandria, DC-VA-MD-WV",38.916777,-77.51665,,ARCLVAXARS0,,Not Connected,Near Net,Commercial Building,703,327,236,,,Fiber,,FIBERLIGHT LLC,,,,,,,,,,N,,,25324,,Ashbury,,Dr,,,,,,,,No,1001 - 1500 feet,705.0,,1371.0,,,,,,,,,,,,,,,,,,,,,,,,,,,,,,,,,,,,,,,,,,,,,,,,,,,,,,,,,,,,,,,,,,,,,,,,,,,,,,,,,,,,,,,,,,,,,,,,,,,,1020,,,,delta_new
44074 Mercure Cir,44074 Mercure Cir,Sterling,VA,20166,USA,"Washington-Arlington-Alexandria, DC-VA-MD-WV",38.981331,-77.480443,,DLLSVAXARS0,,Not Connected,Near Net,Commercial Building,703,260,236,,,Fiber,,FIBERLIGHT LLC,,,,,,,,,,N,,,44074,,Mercure,,Cir,,,,,,,,No,1001 - 1500 feet,707.0,,1216.0,,,,,,,,,,,,,,,,,,,,,,,,,,,,,,,,,,,,,,,,,,,,,,,,,,,,,,,,,,,,,,,,,,,,,,,,,,,,,,,,,,,,,,,,,,,,,,,,,,,,1021,,,,delta_new
41096 John Mosby Hwy,41096 John Mosby Hwy,Aldie,VA,20105,USA,"Washington-Arlington-Alexandria, DC-VA-MD-WV",38.9543,-77.58146,,ARCLVAXARS0,,Not Connected,Near Net,Commercial Building,703,327,236,,,Fiber,,FIBERLIGHT LLC,,,,,,,,,,N,,,41096,,John Mosby,,Hwy,,,,,,,,No,1001 - 1500 feet,732.0,,1064.0,,,,,,,,,,,,,,,,,,,,,,,,,,,,,,,,,,,,,,,,,,,,,,,,,,,,,,,,,,,,,,,,,,,,,,,,,,,,,,,,,,,,,,,,,,,,,,,,,,,,1023,,,,delta_new
41225 Tulip Poplar Pl,41225 Tulip Poplar Pl,Aldie,VA,20105,USA,"Washington-Arlington-Alexandria, DC-VA-MD-WV",38.94308,-77.58664,,ARCLVAXARS0,,Not Connected,Near Net,Commercial Building,703,327,236,,,Fiber,,FIBERLIGHT LLC,,,,,,,,,,N,,,41225,,Tulip Poplar,,Pl,,,,,,,,No,501 - 1000 feet,730.0,,743.0,,,,,,,,,,,,,,,,,,,,,,,,,,,,,,,,,,,,,,,,,,,,,,,,,,,,,,,,,,,,,,,,,,,,,,,,,,,,,,,,,,,,,,,,,,,,,,,,,,,,1025,,,,delta_new
24282 Millstream Dr,24282 Millstream Dr,Aldie,VA,20105,USA,"Washington-Arlington-Alexandria, DC-VA-MD-WV",38.94308,-77.58664,,ARCLVAXARS0,,Not Connected,Near Net,Commercial Building,703,327,236,,,Fiber,,FIBERLIGHT LLC,,,,,,,,,,N,,,24282,,Millstream,,Dr,,,,,,,,No,501 - 1000 feet,730.0,,743.0,,,,,,,,,,,,,,,,,,,,,,,,,,,,,,,,,,,,,,,,,,,,,,,,,,,,,,,,,,,,,,,,,,,,,,,,,,,,,,,,,,,,,,,,,,,,,,,,,,,,1026,,,,delta_new
24489 Salix Ln,24489 Salix Ln,Aldie,VA,20105,USA,"Washington-Arlington-Alexandria, DC-VA-MD-WV",38.940394,-77.586272,,ARCLVAXARS0,,Not Connected,Near Net,Commercial Building,703,327,236,,,Fiber,,FIBERLIGHT LLC,,,,,,,,,,N,,,24489,,Salix,,Ln,,,,,,,,No,1001 - 1500 feet,726.0,,1006.0,,,,,,,,,,,,,,,,,,,,,,,,,,,,,,,,,,,,,,,,,,,,,,,,,,,,,,,,,,,,,,,,,,,,,,,,,,,,,,,,,,,,,,,,,,,,,,,,,,,,1028,,,,delta_new
25373 Crossfield Dr,25373 Crossfield Dr,Chantilly,VA,20152,USA,"Washington-Arlington-Alexandria, DC-VA-MD-WV",38.915498,-77.520967,,ARCLVAXARS0,,Not Connected,Near Net,Commercial Building,703,327,236,,,Fiber,,FIBERLIGHT LLC,,,,,,,,,,N,,,25373,,Crossfield,,Dr,,,,,,,,No,501 - 1000 feet,725.0,,955.0,,,,,,,,,,,,,,,,,,,,,,,,,,,,,,,,,,,,,,,,,,,,,,,,,,,,,,,,,,,,,,,,,,,,,,,,,,,,,,,,,,,,,,,,,,,,,,,,,,,,1029,,,,delta_new
